location_id,city,open_soon,postal_code,longitude,latitude,station_id,kw,charger_type,bundesland
dc36310,Hoyerswerda,0,2977,14.2647780000,51.4457710000,dc36310,11,destination,Sachsen
dc36310,Hoyerswerda,0,2977,14.2647780000,51.4457710000,dc36310,11,destination,Sachsen
dc75043,Noerdlingen,0,86720,10.4945730000,48.8565290000,dc75043,22,destination,Bayern
dc74540,Hahnenklee,0,38644,10.3386250000,51.8639930000,dc74540,11,destination,Niedersachsen
dc78129,Emmelsbuell-Horsbuell,0,25924,8.7006060000,54.8097810000,dc78129,17,destination,Schleswig-Holstein
dc11920,List,0,25992,8.4288800000,55.0144850000,dc11920,11,destination,Schleswig-Holstein
dc11920,List,0,25992,8.4288800000,55.0144850000,dc11920,11,destination,Schleswig-Holstein
dc74675,Karlsruhe,0,76133,8.3932930000,49.0129060000,dc74675,17,destination,Baden-Württemberg
dc74672,Bad Duerkheim,0,67098,8.1695840000,49.4621520000,dc74672,22,destination,Rheinland-Pfalz
dc74672,Bad Duerkheim,0,67098,8.1695840000,49.4621520000,dc74672,22,destination,Rheinland-Pfalz
dc531798,Reilingen,0,68799,8.5700110000,49.2989690000,dc531798,11,destination,Baden-Württemberg
dc531798,Reilingen,0,68799,8.5700110000,49.2989690000,dc531798,11,destination,Baden-Württemberg
dc541721,Buehl,0,77815,8.1264690000,48.7026260000,dc541721,11,destination,Baden-Württemberg
dc541721,Buehl,0,77815,8.1264690000,48.7026260000,dc541721,11,destination,Baden-Württemberg
dc25007,Nesselwang,0,878484,10.4985060000,47.6273060000,dc25007,22,destination,Bayern
dc38217,Frankenberg,0,9669,13.0303470000,50.9133020000,dc38217,11,destination,Sachsen
dc27911,Kamenz,0,1917,14.0955950000,51.2700640000,dc27911,11,destination,Sachsen
dc25593,Muhlhausen,0,73347,9.6570610000,48.5803140000,dc25593,17,destination,Baden-Württemberg
dc25806,Gießen,0,35390,8.6691190000,50.5832830000,dc25806,11,destination,Hessen
dc26332,Stuttgart-Moehringen,0,70567,9.1448820000,48.7213670000,dc26332,11,destination,Baden-Württemberg
dc26332,Stuttgart-Moehringen,0,70567,9.1448820000,48.7213670000,dc26332,11,destination,Baden-Württemberg
dc25253,Bad Mergentheim,0,97980,9.7962300000,49.4957640000,dc25253,11,destination,Baden-Württemberg
dc25253,Bad Mergentheim,0,97980,9.7962300000,49.4957640000,dc25253,11,destination,Baden-Württemberg
dc25681,Göhren,0,18586,13.7398830000,54.3436680000,dc25681,22,destination,Mecklenburg-Vorpommern
dc38618,Fuerth,0,90766,10.9495770000,49.4899350000,dc38618,11,destination,Bayern
dc29308,Koeln,0,50933,6.9089440000,50.9384697000,dc29308,11,destination,Nordrhein-Westfalen
dc29308,Koeln,0,50933,6.9089440000,50.9384697000,dc29308,11,destination,Nordrhein-Westfalen
dc26334,Frankfurt am Main,0,60313,8.6797060000,50.1158030000,dc26334,11,destination,Hessen
dc71396,Wilhelmshaven,0,26382,8.1152630000,53.5119730000,dc71396,17,destination,Niedersachsen
dc12440,Heringsdorf,0,17424,14.1817710000,53.9467410000,dc12440,22,destination,Mecklenburg-Vorpommern
dc12440,Heringsdorf,0,17424,14.1817710000,53.9467410000,dc12440,22,destination,Mecklenburg-Vorpommern
dc22192,Weisendorf,0,91085,10.8202290000,49.6337150000,dc22192,22,destination,Bayern
dc22192,Weisendorf,0,91085,10.8202290000,49.6337150000,dc22192,22,destination,Bayern
dc17703,Viechtach,0,94234,12.9138910000,49.0695940000,dc17703,22,destination,Bayern
dc17703,Viechtach,0,94234,12.9138910000,49.0695940000,dc17703,22,destination,Bayern
dc33533,Lindberg,0,94227,13.2643040000,49.0459140000,dc33533,11,destination,Bayern
dc33533,Lindberg,0,94227,13.2643040000,49.0459140000,dc33533,11,destination,Bayern
dc26753,Bad Griesbach,0,94086,13.1974060000,48.4412010000,dc26753,11,destination,Bayern
dc26753,Bad Griesbach,0,94086,13.1974060000,48.4412010000,dc26753,11,destination,Bayern
dc24555,Rudesheim,0,65385,7.8679330000,49.9885470000,dc24555,22,destination,Hessen
dc24555,Rudesheim,0,65385,7.8679330000,49.9885470000,dc24555,22,destination,Hessen
dc25660,Dorsten,0,46284,6.9529760000,51.6847120000,dc25660,22,destination,Nordrhein-Westfalen
dc25660,Dorsten,0,46284,6.9529760000,51.6847120000,dc25660,22,destination,Nordrhein-Westfalen
dc25185,Dettelbach,0,97337,10.1610790000,49.8028130000,dc25185,22,destination,Bayern
dc33604,Neukirchen,0,94362,12.7540790000,48.9745120000,dc33604,17,destination,Bayern
dc25252,Busum,0,25761,8.8633840000,54.1304630000,dc25252,14,destination,Schleswig-Holstein
dc25252,Busum,0,25761,8.8633840000,54.1304630000,dc25252,14,destination,Schleswig-Holstein
dc25184,Dettelbach,0,97337,10.1699650000,49.8046360000,dc25184,22,destination,Bayern
dc25188,Helmstadt,0,97264,9.7106520000,49.7602740000,dc25188,11,destination,Bayern
dc25188,Helmstadt,0,97264,9.7106520000,49.7602740000,dc25188,11,destination,Bayern
dc21670,Dortmund,0,44143,7.5016190000,51.5168650000,dc21670,22,destination,Nordrhein-Westfalen
dc25914,Aiterhofen,0,94330,12.6205050000,48.8454490000,dc25914,22,destination,Bayern
dc18996,Bautzen,0,2625,14.4206770000,51.1687240000,dc18996,22,destination,Sachsen
dc18996,Bautzen,0,2625,14.4206770000,51.1687240000,dc18996,22,destination,Sachsen
dc25174,Horstel,0,48477,7.5639310000,52.2694770000,dc25174,22,destination,Nordrhein-Westfalen
dc23637,Erkrath,0,40699,6.9657530000,51.2052100000,dc23637,17,destination,Nordrhein-Westfalen
dc25114,Bispingen-Behringen,0,29646,9.9605860000,53.1125510000,dc25114,22,destination,Niedersachsen
dc25114,Bispingen-Behringen,0,29646,9.9605860000,53.1125510000,dc25114,22,destination,Niedersachsen
dc25614,Harpstedt,0,27243,8.5904900000,52.9099680000,dc25614,17,destination,Niedersachsen
dc25614,Harpstedt,0,27243,8.5904900000,52.9099680000,dc25614,17,destination,Niedersachsen
dc21667,Wemding,0,86650,10.7236530000,48.8749350000,dc21667,22,destination,Bayern
dc81543,Bad Krozingen,0,79189,7.6885180000,47.9216780000,dc81543,6,destination,Baden-Württemberg
dc81554,Roevershagen,0,18182,12.2291270000,54.1626560000,dc81554,11,destination,Mecklenburg-Vorpommern
dc81554,Roevershagen,0,18182,12.2291270000,54.1626560000,dc81554,11,destination,Mecklenburg-Vorpommern
dc29581,Bad Groenenbach,0,87730,10.2235300000,47.8702020000,dc29581,14,destination,Bayern
dc29581,Bad Groenenbach,0,87730,10.2235300000,47.8702020000,dc29581,14,destination,Bayern
dc17835,Murnau am Staffelsee,0,82418,11.1951360000,47.6685760000,dc17835,22,destination,Bayern
dc12841,Ruhpolding,0,83324,12.6457990000,47.7623550000,dc12841,11,destination,Bayern
dc38593,Weyarn,0,83629,11.8004280000,47.8578290000,dc38593,11,destination,Bayern
dc38593,Weyarn,0,83629,11.8004280000,47.8578290000,dc38593,11,destination,Bayern
dc16037,Willingen,0,34508,8.6105700000,51.2960390000,dc16037,11,destination,Hessen
dc51038,Neuruppin,0,16816,12.8096000000,52.9213930000,dc51038,22,destination,Brandenburg
dc31834,Bergisch Gladbach,0,51429,7.1599830000,50.9667320000,dc31834,14,destination,Nordrhein-Westfalen
dc31834,Bergisch Gladbach,0,51429,7.1599830000,50.9667320000,dc31834,14,destination,Nordrhein-Westfalen
dc18287,Celle,0,29221,10.0755880000,52.6204710000,dc18287,22,destination,Niedersachsen
dc18287,Celle,0,29221,10.0755880000,52.6204710000,dc18287,22,destination,Niedersachsen
dc18235,Rottach-Egern,0,83700,11.7578400000,47.6968410000,dc18235,14,destination,Bayern
dc17555,St. Peter-Ording,0,25826,8.6054790000,54.3142980000,dc17555,22,destination,Schleswig-Holstein
dc42523,Altenmarkt an der Alz,0,83352,12.5308880000,48.0028700000,dc42523,22,destination,Bayern
dc40522,Bayreuth,0,95448,11.5926130000,49.9342550000,dc40522,11,destination,Bayern
dc38626,Kronwieden,0,84180,12.4345570000,48.6282560000,dc38626,11,destination,Bayern
dc38626,Kronwieden,0,84180,12.4345570000,48.6282560000,dc38626,11,destination,Bayern
dc14169,Radolfzell,0,78315,8.9737960000,47.7411150000,dc14169,22,destination,Baden-Württemberg
dc14169,Radolfzell,0,78315,8.9737960000,47.7411150000,dc14169,22,destination,Baden-Württemberg
dc11693,Bad Salzschlirf,0,36364,9.5075810000,50.6159660000,dc11693,22,destination,Hessen
dc22636,Neustadt,0,23730,10.8021960000,54.0918100000,dc22636,11,destination,Schleswig-Holstein
dc20667,Weissenfeld,0,85622,11.7672680000,48.1313390000,dc20667,11,destination,Bayern
dc20667,Weissenfeld,0,85622,11.7672680000,48.1313390000,dc20667,11,destination,Bayern
dc20667,Weissenfeld,0,85622,11.7672680000,48.1313390000,dc20667,11,destination,Bayern
dc17007,Essen,0,45127,7.0075220000,51.4522380000,dc17007,17,destination,Nordrhein-Westfalen
dc17007,Essen,0,45127,7.0075220000,51.4522380000,dc17007,17,destination,Nordrhein-Westfalen
dc23368,Bremerhaven,0,27568,8.5730630000,53.5431430000,dc23368,22,destination,Bremen
dc16626,Osterfeld,0,6721,11.9346450000,51.0841110000,dc16626,11,destination,Sachsen-Anhalt
dc16626,Osterfeld,0,6721,11.9346450000,51.0841110000,dc16626,11,destination,Sachsen-Anhalt
dc16848,Wendeburg,0,38176,10.3988160000,52.3196130000,dc16848,17,destination,Niedersachsen
dc16848,Wendeburg,0,38176,10.3988160000,52.3196130000,dc16848,17,destination,Niedersachsen
dc531804,Gersthofen,0,86368,10.8746810000,48.4433800000,dc531804,11,destination,Bayern
dc531804,Gersthofen,0,86368,10.8746810000,48.4433800000,dc531804,11,destination,Bayern
dc13281,Wildeshausen,0,27793,8.4287780000,52.9007820000,dc13281,22,destination,Niedersachsen
dc13281,Wildeshausen,0,27793,8.4287780000,52.9007820000,dc13281,22,destination,Niedersachsen
dc55874,Gruenheide OT Freienbrink,0,15537,13.8006370000,52.3863280000,dc55874,11,destination,Brandenburg
dc55874,Gruenheide OT Freienbrink,0,15537,13.8006370000,52.3863280000,dc55874,11,destination,Brandenburg
dc55874,Gruenheide OT Freienbrink,0,15537,13.8006370000,52.3863280000,dc55874,11,destination,Brandenburg
dc34207,Fehmarn,0,23769,11.0869657000,54.4583040000,dc34207,22,destination,Schleswig-Holstein
dc34207,Fehmarn,0,23769,11.0869657000,54.4583040000,dc34207,22,destination,Schleswig-Holstein
dc15157,Bad Aibling,0,83043,11.9876990000,47.8848450000,dc15157,22,destination,Bayern
dc21982,Starnberg,0,82319,11.3410890000,47.9985440000,dc21982,11,destination,Bayern
dc536260,Pritzwalk,0,16928,12.1291350000,53.1632130000,dc536260,22,destination,Brandenburg
dc536260,Pritzwalk,0,16928,12.1291350000,53.1632130000,dc536260,22,destination,Brandenburg
dc30916,Rimbach,0,93485,12.8434930000,49.2411430000,dc30916,11,destination,Bayern
dc31953,Berlin,0,10405,13.4166161000,52.5281958000,dc31953,22,destination,Berlin
dc31953,Berlin,0,10405,13.4166161000,52.5281958000,dc31953,22,destination,Berlin
dc31953,Berlin,0,10405,13.4166161000,52.5281958000,dc31953,22,destination,Berlin
dc29286,Kehl,0,77694,7.8082760000,48.5767680000,dc29286,22,destination,Baden-Württemberg
dc33979,Timmendorfer Strand,0,23669,10.7764600000,54.0001020000,dc33979,22,destination,Schleswig-Holstein
dc33979,Timmendorfer Strand,0,23669,10.7764600000,54.0001020000,dc33979,22,destination,Schleswig-Holstein
dc14931,Barth,0,18356,12.7229080000,54.3703120000,dc14931,22,destination,Mecklenburg-Vorpommern
dc14931,Barth,0,18356,12.7229080000,54.3703120000,dc14931,22,destination,Mecklenburg-Vorpommern
dc18363,Heiligenhafen,0,23774,10.9784010000,54.3797860000,dc18363,22,destination,Schleswig-Holstein
dc18363,Heiligenhafen,0,23774,10.9784010000,54.3797860000,dc18363,22,destination,Schleswig-Holstein
dc23021,Hannover,0,30519,9.7772530000,52.3279990000,dc23021,22,destination,Niedersachsen
dc29797,Aitern,0,79677,7.8502240000,47.8213980000,dc29797,11,destination,Baden-Württemberg
dc29797,Aitern,0,79677,7.8502240000,47.8213980000,dc29797,11,destination,Baden-Württemberg
dc23513,Boppard,0,56154,7.5903020000,50.2327660000,dc23513,22,destination,Rheinland-Pfalz
dc12501,Sylt/Keitum,0,25980,8.3676300000,54.8921570000,dc12501,22,destination,Schleswig-Holstein
dc12501,Sylt/Keitum,0,25980,8.3676300000,54.8921570000,dc12501,22,destination,Schleswig-Holstein
dc17496,Winterberg,0,59955,8.4652730000,51.1896950000,dc17496,22,destination,Nordrhein-Westfalen
dc36812,Reken,0,48734,7.0531800000,51.8373300000,dc36812,22,destination,Nordrhein-Westfalen
dc15729,Ramsau,0,83486,12.8989580000,47.6085060000,dc15729,22,destination,Bayern
dc15729,Ramsau,0,83486,12.8989580000,47.6085060000,dc15729,22,destination,Bayern
dc16516,Bayrischzell,0,83735,12.0358100000,47.6783500000,dc16516,22,destination,Bayern
dc608774,Osnabrück,0,49074,8.0580850000,52.2723950000,dc608774,22,destination,Niedersachsen
dc608774,Osnabrück,0,49074,8.0580850000,52.2723950000,dc608774,22,destination,Niedersachsen
dc62690,Wetzlar,0,35576,8.5007210000,50.5598650000,dc62690,22,destination,Hessen
dc62690,Wetzlar,0,35576,8.5007210000,50.5598650000,dc62690,22,destination,Hessen
dc86317,Wiesbaden,0,65189,8.2489840000,50.0709280000,dc86317,6,destination,Hessen
dc86317,Wiesbaden,0,65189,8.2489840000,50.0709280000,dc86317,6,destination,Hessen
dc79814,Bremen,0,28195,8.8110880000,53.0826670000,dc79814,11,destination,Bremen
dc79814,Bremen,0,28195,8.8110880000,53.0826670000,dc79814,11,destination,Bremen
dc79814,Bremen,0,28195,8.8110880000,53.0826670000,dc79814,11,destination,Bremen
dc39012,Ludwigshafen am Rhein,0,67059,8.4356220000,49.4789160000,dc39012,17,destination,Rheinland-Pfalz
dc29955,Ehingen,0,89584,9.7281780000,48.2830610000,dc29955,22,destination,Baden-Württemberg
dc60487,Giessen,0,35390,8.6832880000,50.5809910000,dc60487,14,destination,Hessen
dc60487,Giessen,0,35390,8.6832880000,50.5809910000,dc60487,14,destination,Hessen
dc21837,Willingen,0,34508,8.6062530000,51.2948420000,dc21837,11,destination,Hessen
dc47116,Garmisch-Partenkirchen,0,82467,11.0777150000,47.4918680000,dc47116,22,destination,Bayern
dc47116,Garmisch-Partenkirchen,0,82467,11.0777150000,47.4918680000,dc47116,22,destination,Bayern
dc11697,Freiburg,0,79098,7.8455820000,47.9969170000,dc11697,14,destination,Baden-Württemberg
dc11697,Freiburg,0,79098,7.8455820000,47.9969170000,dc11697,14,destination,Baden-Württemberg
dc16678,Hanau,0,63456,8.9168580000,50.1052080000,dc16678,22,destination,Hessen
dc16678,Hanau,0,63456,8.9168580000,50.1052080000,dc16678,22,destination,Hessen
dc81553,Bad Mergentheim,0,97980,9.7837370000,49.4946660000,dc81553,6,destination,Baden-Württemberg
dc19473,Munster,0,48165,7.6540640000,51.8888530000,dc19473,22,destination,Nordrhein-Westfalen
dc19473,Munster,0,48165,7.6540640000,51.8888530000,dc19473,22,destination,Nordrhein-Westfalen
dc11005,Husum,0,25813,9.0469330000,54.4790890000,dc11005,22,destination,Schleswig-Holstein
dc11005,Husum,0,25813,9.0469330000,54.4790890000,dc11005,22,destination,Schleswig-Holstein
dc37395,Augsburg,0,86167,10.9175840000,48.3869310000,dc37395,11,destination,Bayern
dc15127,Fussen,0,87629,10.6823820000,47.6091960000,dc15127,22,destination,Bayern
dc15127,Fussen,0,87629,10.6823820000,47.6091960000,dc15127,22,destination,Bayern
dc12289,Tönning,0,25832,8.9385600000,54.3146900000,dc12289,22,destination,Schleswig-Holstein
dc12289,Tönning,0,25832,8.9385600000,54.3146900000,dc12289,22,destination,Schleswig-Holstein
dc17501,Bad Fuessing,0,94072,13.3214570000,48.3501110000,dc17501,11,destination,Bayern
dc37330,Rosshaupten,0,87672,10.7115320000,47.6363050000,dc37330,14,destination,Bayern
dc22698,Burg,0,3096,14.1082070000,51.8427183000,dc22698,11,destination,Brandenburg
dc22698,Burg,0,3096,14.1082070000,51.8427183000,dc22698,11,destination,Brandenburg
dc37147,Stein,0,90547,11.0145340000,49.4139690000,dc37147,22,destination,Bayern
dc17503,Vogt,0,88267,9.7660400000,47.7753410000,dc17503,11,destination,Baden-Württemberg
dc17503,Vogt,0,88267,9.7660400000,47.7753410000,dc17503,11,destination,Baden-Württemberg
dc33758,Friedrichshafen,0,88048,9.5046690000,47.6851210000,dc33758,22,destination,Baden-Württemberg
dc33758,Friedrichshafen,0,88048,9.5046690000,47.6851210000,dc33758,22,destination,Baden-Württemberg
dc26668,Zeulenroda,0,7937,11.9792610000,50.6667960000,dc26668,22,destination,Thüringen
dc35347,Bad Fuessing,0,94072,13.3214570000,48.3501110000,dc35347,11,destination,Bayern
dc26670,Hackenheim,0,55546,7.9034790000,49.8321360000,dc26670,11,destination,Rheinland-Pfalz
dc16845,Garmisch-Partenkirchen,0,82467,11.0975790000,47.4948810000,dc16845,11,destination,Bayern
dc16843,Garmisch-Partenkirchen,0,82467,11.0939440000,47.4945190000,dc16843,11,destination,Bayern
dc25852,Bad Hindelang,0,87541,10.4098660000,47.5105760000,dc25852,17,destination,Bayern
dc25852,Bad Hindelang,0,87541,10.4098660000,47.5105760000,dc25852,17,destination,Bayern
dc15868,Mellrichstadt,0,97638,10.2935050000,50.4199480000,dc15868,22,destination,Bayern
dc36134,Bad Urach,0,72574,9.3995480000,48.4937580000,dc36134,11,destination,Baden-Württemberg
dc16426,Schongau,0,86956,10.8970650000,47.8129580000,dc16426,17,destination,Bayern
dc22640,Burg im Spreewald,0,3096,14.1270030000,51.8430630000,dc22640,17,destination,Brandenburg
dc22640,Burg im Spreewald,0,3096,14.1270030000,51.8430630000,dc22640,17,destination,Brandenburg
dc26682,Neustrelitz,0,17235,13.0518300000,53.3623850000,dc26682,22,destination,Mecklenburg-Vorpommern
dc26682,Neustrelitz,0,17235,13.0518300000,53.3623850000,dc26682,22,destination,Mecklenburg-Vorpommern
dc30017,Muecheln (Geiseltal),0,6249,11.8116730000,51.3071020000,dc30017,11,destination,Sachsen-Anhalt
dc23365,Hannover,0,30519,9.7760660000,52.3288310000,dc23365,22,destination,Niedersachsen
dc531459,Aying,0,85653,11.7806320000,47.9708720000,dc531459,11,destination,Bayern
dc531459,Aying,0,85653,11.7806320000,47.9708720000,dc531459,11,destination,Bayern
dc18333,Muehlhausen,0,99974,10.4571500000,51.2080540000,dc18333,22,destination,Thüringen
dc72097,Moers,0,47441,6.6239910000,51.4526100000,dc72097,22,destination,Nordrhein-Westfalen
dc72097,Moers,0,47441,6.6239910000,51.4526100000,dc72097,22,destination,Nordrhein-Westfalen
dc10205,Duesseldorf,0,40212,6.7781720000,51.2251630000,dc10205,22,destination,Nordrhein-Westfalen
dc10205,Duesseldorf,0,40212,6.7781720000,51.2251630000,dc10205,22,destination,Nordrhein-Westfalen
dc10014,Baden-Baden,0,76530,8.2402050000,48.7560470000,dc10014,22,destination,Baden-Württemberg
dc10014,Baden-Baden,0,76530,8.2402050000,48.7560470000,dc10014,22,destination,Baden-Württemberg
dc14666,Pegnitz,0,91257,11.5392780000,49.7522450000,dc14666,22,destination,Bayern
dc24307,Colmberg,0,91598,10.4078440000,49.3603290000,dc24307,11,destination,Bayern
dc24307,Colmberg,0,91598,10.4078440000,49.3603290000,dc24307,11,destination,Bayern
dc55257,Langenberg,0,33449,8.3156970000,51.7749350000,dc55257,11,destination,Nordrhein-Westfalen
dc23477,Oberhausen,0,46047,6.8814560000,51.4925150000,dc23477,22,destination,Nordrhein-Westfalen
dc12203,Ruhpolding,0,83324,12.6613650000,47.7315450000,dc12203,22,destination,Bayern
dc21181,München,0,80636,11.5422500000,48.1448430000,dc21181,22,destination,Bayern
dc21181,München,0,80636,11.5422500000,48.1448430000,dc21181,22,destination,Bayern
dc23038,Hannover,0,30159,9.7387940000,52.3709330000,dc23038,22,destination,Niedersachsen
dc54641,Muenchen,0,80336,11.5575950000,48.1379600000,dc54641,22,destination,Bayern
dc29625,Bad Nauheim,0,61231,8.7373330000,50.3691640000,dc29625,22,destination,Hessen
dc29625,Bad Nauheim,0,61231,8.7373330000,50.3691640000,dc29625,22,destination,Hessen
dc25220,Rosengarten,0,21224,9.8978450000,53.4237060000,dc25220,22,destination,Niedersachsen
dc25220,Rosengarten,0,21224,9.8978450000,53.4237060000,dc25220,22,destination,Niedersachsen
dc71527,Detern,0,26847,7.6599840000,53.2121300000,dc71527,22,destination,Niedersachsen
dc14662,Erlangen,0,91052,11.0148210000,49.5897220000,dc14662,11,destination,Bayern
dc14662,Erlangen,0,91052,11.0148210000,49.5897220000,dc14662,11,destination,Bayern
dc26854,Hamburg,0,22087,10.0194910000,53.5631740000,dc26854,22,destination,Unknown
dc28382,Tegernsee,0,83684,11.7566240000,47.7172550000,dc28382,22,destination,Bayern
dc28382,Tegernsee,0,83684,11.7566240000,47.7172550000,dc28382,22,destination,Bayern
dc19617,Hannover,0,30169,9.7471560000,52.3643250000,dc19617,22,destination,Niedersachsen
dc19617,Hannover,0,30169,9.7471560000,52.3643250000,dc19617,22,destination,Niedersachsen
dc18251,Pfronten,0,87459,10.5921190000,47.5700130000,dc18251,22,destination,Bayern
dc18251,Pfronten,0,87459,10.5921190000,47.5700130000,dc18251,22,destination,Bayern
dc38595,Oberstdorf,0,87561,10.2707720000,47.4052430000,dc38595,11,destination,Bayern
dc33524,Schwangau,0,87645,10.7308860000,47.5826280000,dc33524,11,destination,Bayern
dc33524,Schwangau,0,87645,10.7308860000,47.5826280000,dc33524,11,destination,Bayern
dc18283,Bad Fuessing,0,94072,13.3097840000,48.3456280000,dc18283,22,destination,Bayern
dc531791,Bad Mergentheim,0,97980,9.7730490000,49.4973860000,dc531791,11,destination,Baden-Württemberg
dc531791,Bad Mergentheim,0,97980,9.7730490000,49.4973860000,dc531791,11,destination,Baden-Württemberg
dc78503,Büchlberg,0,94124,13.5068960000,48.6534720000,dc78503,22,destination,Bayern
dc78503,Büchlberg,0,94124,13.5068960000,48.6534720000,dc78503,22,destination,Bayern
dc21449,Berlin,0,10787,13.3461940000,52.5098370000,dc21449,22,destination,Berlin
dc18316,Bayrischzell,0,83735,11.9884740000,47.6846060000,dc18316,22,destination,Bayern
dc18316,Bayrischzell,0,83735,11.9884740000,47.6846060000,dc18316,22,destination,Bayern
dc11711,Munich,0,81667,11.6043843000,48.1288686000,dc11711,22,destination,Bayern
dc12293,Wustermark OT Elstal,0,14641,12.9772200000,52.5422880000,dc12293,11,destination,Brandenburg
dc12293,Wustermark OT Elstal,0,14641,12.9772200000,52.5422880000,dc12293,11,destination,Brandenburg
dc14480,Hannover,0,30519,9.7767270000,52.3271760000,dc14480,22,destination,Niedersachsen
dc14480,Hannover,0,30519,9.7767270000,52.3271760000,dc14480,22,destination,Niedersachsen
dc26400,Kaufering,0,86916,10.8567460000,48.0801440000,dc26400,22,destination,Bayern
dc26400,Kaufering,0,86916,10.8567460000,48.0801440000,dc26400,22,destination,Bayern
dc22585,Olpe,0,57462,7.8402760000,51.0670010000,dc22585,22,destination,Nordrhein-Westfalen
dc22585,Olpe,0,57462,7.8402760000,51.0670010000,dc22585,22,destination,Nordrhein-Westfalen
dc536250,Ibbenbüren,0,49477,7.7228400000,52.2627110000,dc536250,22,destination,Nordrhein-Westfalen
dc35985,Lippstadt,0,59558,8.3659570000,51.6855040000,dc35985,22,destination,Nordrhein-Westfalen
dc23554,Winterberg,0,59955,8.5274210000,51.1932500000,dc23554,11,destination,Nordrhein-Westfalen
dc37143,Cuxhaven,0,27476,8.6523800000,53.8869090000,dc37143,11,destination,Niedersachsen
dc37334,Wuerzburg,0,97080,9.8907560000,49.8119130000,dc37334,17,destination,Bayern
dc37334,Wuerzburg,0,97080,9.8907560000,49.8119130000,dc37334,17,destination,Bayern
dc51033,Essen,0,45219,6.9327240000,51.3581790000,dc51033,11,destination,Nordrhein-Westfalen
dc18296,Berchtesgaden,0,83471,13.0019620000,47.6320950000,dc18296,22,destination,Bayern
dc18296,Berchtesgaden,0,83471,13.0019620000,47.6320950000,dc18296,22,destination,Bayern
dc13516,Rottach-Egern,0,83700,11.7539130000,47.6942170000,dc13516,22,destination,Bayern
dc14452,Grainau,0,82491,10.9905980000,47.4576600000,dc14452,22,destination,Bayern
dc18984,Schleiden,0,53937,6.4995500000,50.5764690000,dc18984,22,destination,Nordrhein-Westfalen
dc53172,Gondorf,0,54647,6.6180560000,49.9634610000,dc53172,11,destination,Rheinland-Pfalz
dc53172,Gondorf,0,54647,6.6180560000,49.9634610000,dc53172,11,destination,Rheinland-Pfalz
dc12648,Wildpoldsried,0,87499,10.4022950000,47.7668580000,dc12648,11,destination,Bayern
dc71393,Pottenstein,0,91278,11.4113630000,49.7601510000,dc71393,4,destination,Bayern
dc16228,Berlin,0,12459,13.5402390000,52.4571510000,dc16228,22,destination,Berlin
dc16228,Berlin,0,12459,13.5402390000,52.4571510000,dc16228,22,destination,Berlin
dc531865,Am Altenheimer Yachthafen,0,77743,7.7844440000,48.4952850000,dc531865,11,destination,Baden-Württemberg
dc531865,Am Altenheimer Yachthafen,0,77743,7.7844440000,48.4952850000,dc531865,11,destination,Baden-Württemberg
dc531865,Am Altenheimer Yachthafen,0,77743,7.7844440000,48.4952850000,dc531865,11,destination,Baden-Württemberg
dc531865,Am Altenheimer Yachthafen,0,77743,7.7844440000,48.4952850000,dc531865,11,destination,Baden-Württemberg
dc531865,Am Altenheimer Yachthafen,0,77743,7.7844440000,48.4952850000,dc531865,11,destination,Baden-Württemberg
dc11780,Heidelberg,0,69117,8.6952660000,49.4078280000,dc11780,22,destination,Baden-Württemberg
dc11780,Heidelberg,0,69117,8.6952660000,49.4078280000,dc11780,22,destination,Baden-Württemberg
dc16653,Schoenau am Koenigssee,0,83471,12.9844400000,47.5986130000,dc16653,11,destination,Bayern
dc16653,Schoenau am Koenigssee,0,83471,12.9844400000,47.5986130000,dc16653,11,destination,Bayern
dc16652,Nesselwang,0,87484,10.5004560000,47.6176950000,dc16652,11,destination,Bayern
dc16652,Nesselwang,0,87484,10.5004560000,47.6176950000,dc16652,11,destination,Bayern
dc16651,Fischen,0,87538,10.2657850000,47.4257750000,dc16651,22,destination,Bayern
dc16651,Fischen,0,87538,10.2657850000,47.4257750000,dc16651,22,destination,Bayern
dc71243,Muenster,0,48163,7.5939490000,51.8902710000,dc71243,22,destination,Nordrhein-Westfalen
dc36936,Koenigstein im Taunus,0,61462,8.4800690000,50.1923040000,dc36936,22,destination,Hessen
dc36936,Koenigstein im Taunus,0,61462,8.4800690000,50.1923040000,dc36936,22,destination,Hessen
dc22819,Schmallenberg,0,57392,8.2840930000,51.1792190000,dc22819,14,destination,Nordrhein-Westfalen
dc22819,Schmallenberg,0,57392,8.2840930000,51.1792190000,dc22819,14,destination,Nordrhein-Westfalen
dc37411,Schoenberg,0,94513,13.3507340000,48.8381490000,dc37411,11,destination,Bayern
dc37411,Schoenberg,0,94513,13.3507340000,48.8381490000,dc37411,11,destination,Bayern
dc18231,Wangels,0,23758,10.7977780000,54.3106330000,dc18231,11,destination,Schleswig-Holstein
dc18231,Wangels,0,23758,10.7977780000,54.3106330000,dc18231,11,destination,Schleswig-Holstein
dc18995,Börgerende-Rethwisch,0,18211,11.9037330000,54.1446840000,dc18995,14,destination,Mecklenburg-Vorpommern
dc56801,Grosswoltersdorf,0,16775,13.1163430000,53.1315520000,dc56801,11,destination,Brandenburg
dc22024,Templin,0,17268,13.5227660000,53.1037500000,dc22024,22,destination,Brandenburg
dc22024,Templin,0,17268,13.5227660000,53.1037500000,dc22024,22,destination,Brandenburg
dc14819,Winterberg,0,59955,8.5115340000,51.1880930000,dc14819,22,destination,Nordrhein-Westfalen
dc14819,Winterberg,0,59955,8.5115340000,51.1880930000,dc14819,22,destination,Nordrhein-Westfalen
dc28841,Waabs,0,24369,9.9793530000,54.5168840000,dc28841,11,destination,Schleswig-Holstein
dc28841,Waabs,0,24369,9.9793530000,54.5168840000,dc28841,11,destination,Schleswig-Holstein
dc18312,Bergen,0,83346,12.5856090000,47.8068010000,dc18312,22,destination,Bayern
dc81653,Badenweiler,0,79410,7.6709020000,47.7988510000,dc81653,11,destination,Baden-Württemberg
dc60560,Pforzheim,0,75175,8.7367590000,48.8869990000,dc60560,11,destination,Baden-Württemberg
dc60560,Pforzheim,0,75175,8.7367590000,48.8869990000,dc60560,11,destination,Baden-Württemberg
dc16293,Zossen,0,15806,13.4469950000,52.2342880000,dc16293,11,destination,Brandenburg
dc16293,Zossen,0,15806,13.4469950000,52.2342880000,dc16293,11,destination,Brandenburg
dc16487,Bad Wunnenberg,0,33181,8.7048610000,51.5192230000,dc16487,22,destination,Nordrhein-Westfalen
dc18208,Frankfurt am Main,0,60487,8.6260870000,50.1279930000,dc18208,11,destination,Hessen
dc17974,Frankfurt am Main,0,60318,8.6800270000,50.1172170000,dc17974,22,destination,Hessen
dc17976,Frankfurt am Main,0,60311,8.6923190000,50.1099560000,dc17976,11,destination,Hessen
dc17975,Munchen,0,80804,11.5868840000,48.1675140000,dc17975,22,destination,Bayern
dc35000,Frankfurt am Main,0,60486,8.6444720000,50.1163800000,dc35000,11,destination,Hessen
dc37068,Neuwied,0,56564,7.4622280000,50.4306460000,dc37068,11,destination,Rheinland-Pfalz
dc37245,Heeslingen,0,27404,9.3425830000,53.3197500000,dc37245,22,destination,Niedersachsen
dc22518,Lichtenstein-Honau,0,72805,9.2606060000,48.4112790000,dc22518,11,destination,Baden-Württemberg
dc18489,Bruchhausen-Vilsen,0,27305,8.9927340000,52.8035050000,dc18489,11,destination,Niedersachsen
dc22573,Trier,0,54292,6.6647610000,49.7732840000,dc22573,22,destination,Rheinland-Pfalz
dc22573,Trier,0,54292,6.6647610000,49.7732840000,dc22573,22,destination,Rheinland-Pfalz
dc17494,Waging am See,0,83329,12.7529740000,47.9347050000,dc17494,22,destination,Bayern
dc17494,Waging am See,0,83329,12.7529740000,47.9347050000,dc17494,22,destination,Bayern
dc36522,Honerath,0,53518,6.8975400000,50.3774260000,dc36522,22,destination,Rheinland-Pfalz
dc36522,Honerath,0,53518,6.8975400000,50.3774260000,dc36522,22,destination,Rheinland-Pfalz
dc36522,Honerath,0,53518,6.8975400000,50.3774260000,dc36522,22,destination,Rheinland-Pfalz
dc18478,Aumühle,0,21521,10.3339320000,53.5311870000,dc18478,14,destination,Schleswig-Holstein
dc22635,Nordheim,0,97334,10.1836800000,49.8597430000,dc22635,11,destination,Bayern
dc24303,Nordheim am Main,0,97334,10.1836800000,49.8597430000,dc24303,22,destination,Bayern
dc12912,Weissenstadt am See,0,95163,11.8695750000,50.0985280000,dc12912,11,destination,Bayern
dc12912,Weissenstadt am See,0,95163,11.8695750000,50.0985280000,dc12912,11,destination,Bayern
dc16369,Freiburg,0,79111,7.7684890000,47.9845450000,dc16369,22,destination,Baden-Württemberg
dc23473,Aschheim-Dornach,0,85609,11.6820850000,48.1500850000,dc23473,22,destination,Bayern
dc23473,Aschheim-Dornach,0,85609,11.6820850000,48.1500850000,dc23473,22,destination,Bayern
dc15837,Meissen,0,1662,13.4799870000,51.1662320000,dc15837,22,destination,Sachsen
dc15837,Meissen,0,1662,13.4799870000,51.1662320000,dc15837,22,destination,Sachsen
dc47314,Bedburg-Hau,0,47551,6.2525500000,51.7497160000,dc47314,11,destination,Nordrhein-Westfalen
dc47314,Bedburg-Hau,0,47551,6.2525500000,51.7497160000,dc47314,11,destination,Nordrhein-Westfalen
dc13339,Rathenow OT Semlin,0,14712,12.4012590000,52.6449230000,dc13339,22,destination,Brandenburg
dc13339,Rathenow OT Semlin,0,14712,12.4012590000,52.6449230000,dc13339,22,destination,Brandenburg
dc14167,Köln,0,51147,7.0629080000,50.8466100000,dc14167,22,destination,Nordrhein-Westfalen
dc14167,Köln,0,51147,7.0629080000,50.8466100000,dc14167,22,destination,Nordrhein-Westfalen
dc60879,Tuerkheim,0,86842,10.6410770000,48.0725477000,dc60879,11,destination,Bayern
dc60879,Tuerkheim,0,86842,10.6410770000,48.0725477000,dc60879,11,destination,Bayern
dc60879,Tuerkheim,0,86842,10.6410770000,48.0725477000,dc60879,11,destination,Bayern
dc16266,Homburg,0,66424,7.2895530000,49.3747880000,dc16266,11,destination,Saarland
dc17864,Luhe-Wildenau,0,92706,12.1174250000,49.5892610000,dc17864,22,destination,Bayern
dc17864,Luhe-Wildenau,0,92706,12.1174250000,49.5892610000,dc17864,22,destination,Bayern
dc18258,Hennstedt,0,25779,9.1979920000,54.2779300000,dc18258,22,destination,Schleswig-Holstein
dc18258,Hennstedt,0,25779,9.1979920000,54.2779300000,dc18258,22,destination,Schleswig-Holstein
dc50844,Radebeul,0,1445,13.6940210000,51.0971470000,dc50844,11,destination,Sachsen
dc83733,Munich,0,85445,11.8329760000,48.3424970000,dc83733,11,destination,Bayern
dc539120,Ostseebad,0,18609,13.6200770000,54.3987900000,dc539120,11,destination,Mecklenburg-Vorpommern
dc539120,Ostseebad,0,18609,13.6200770000,54.3987900000,dc539120,11,destination,Mecklenburg-Vorpommern
dc539120,Ostseebad,0,18609,13.6200770000,54.3987900000,dc539120,11,destination,Mecklenburg-Vorpommern
dc11814,Bad Doberan-Heiligendamm,0,18209,11.8431970000,54.1434800000,dc11814,22,destination,Mecklenburg-Vorpommern
dc11814,Bad Doberan-Heiligendamm,0,18209,11.8431970000,54.1434800000,dc11814,22,destination,Mecklenburg-Vorpommern
dc39673,Regensburg,0,93059,12.0874402000,49.0280562000,dc39673,11,destination,Bayern
dc39673,Regensburg,0,93059,12.0874402000,49.0280562000,dc39673,11,destination,Bayern
dc38628,Jever,0,26441,7.8858190000,53.5638400000,dc38628,22,destination,Niedersachsen
dc17293,Wittighausen,0,97957,9.8508630000,49.6205210000,dc17293,14,destination,Baden-Württemberg
dc23550,Berlin,0,12351,13.4545190000,52.4296500000,dc23550,22,destination,Berlin
dc75821,Schwalmstadt,0,34613,9.1831110000,50.9119110000,dc75821,11,destination,Hessen
dc22083,Mettmann,0,40822,6.9479680000,51.2349120000,dc22083,17,destination,Nordrhein-Westfalen
dc70837,Oberaudorf,0,83080,12.1790470000,47.6607260000,dc70837,22,destination,Bayern
dc26522,Glonn,0,85625,11.8984560000,47.9849190000,dc26522,11,destination,Bayern
dc60559,Huglfing,0,82386,11.1020860000,47.7441880000,dc60559,11,destination,Bayern
dc18331,Rotenburg an der Fulda,0,36199,9.7338270000,51.0051660000,dc18331,22,destination,Hessen
dc18327,Heringhausen,0,34519,8.7338230000,51.3657200000,dc18327,22,destination,Hessen
dc18328,Bad Wildungen,0,34537,9.0784430000,51.1133650000,dc18328,9,destination,Hessen
dc18329,Bad Wildungen,0,34537,9.1104040000,51.1140780000,dc18329,9,destination,Hessen
dc18335,Willingen,0,34508,8.6074370000,51.2954750000,dc18335,22,destination,Hessen
dc18330,Friedewald,0,36289,9.8554420000,50.8802050000,dc18330,22,destination,Hessen
dc18334,Eisenach,0,99817,10.3208380000,50.9767010000,dc18334,22,destination,Thüringen
dc18332,Bad Sachsa,0,37441,10.5489580000,51.5988100000,dc18332,22,destination,Niedersachsen
dc18332,Bad Sachsa,0,37441,10.5489580000,51.5988100000,dc18332,22,destination,Niedersachsen
dc43777,Sierksdorf,0,23730,10.7780550000,54.0737480000,dc43777,22,destination,Schleswig-Holstein
dc43777,Sierksdorf,0,23730,10.7780550000,54.0737480000,dc43777,22,destination,Schleswig-Holstein
dc43777,Sierksdorf,0,23730,10.7780550000,54.0737480000,dc43777,22,destination,Schleswig-Holstein
dc43777,Sierksdorf,0,23730,10.7780550000,54.0737480000,dc43777,22,destination,Schleswig-Holstein
dc27982,Wernigerode,0,38855,10.7851250000,51.8366710000,dc27982,11,destination,Sachsen-Anhalt
dc27982,Wernigerode,0,38855,10.7851250000,51.8366710000,dc27982,11,destination,Sachsen-Anhalt
dc15707,Hilchenbach,0,57271,8.1061840000,50.9938570000,dc15707,22,destination,Nordrhein-Westfalen
dc73006,Scheer,0,72516,9.2969300000,48.0675040000,dc73006,22,destination,Baden-Württemberg
dc73006,Scheer,0,72516,9.2969300000,48.0675040000,dc73006,22,destination,Baden-Württemberg
dc18708,Seebad Ueckermunde,0,17373,14.1207930000,53.7366130000,dc18708,22,destination,Mecklenburg-Vorpommern
dc18708,Seebad Ueckermunde,0,17373,14.1207930000,53.7366130000,dc18708,22,destination,Mecklenburg-Vorpommern
dc33154,Aachen,0,52070,6.0940010000,50.7887650000,dc33154,22,destination,Nordrhein-Westfalen
dc33154,Aachen,0,52070,6.0940010000,50.7887650000,dc33154,22,destination,Nordrhein-Westfalen
dc25187,Berlin,0,10178,13.4190270000,52.5250300000,dc25187,14,destination,Berlin
dc25187,Berlin,0,10178,13.4190270000,52.5250300000,dc25187,14,destination,Berlin
dc49428,Frankfurt,0,60314,8.6472660000,50.1090600000,dc49428,11,destination,Hessen
dc49428,Frankfurt,0,60314,8.6472660000,50.1090600000,dc49428,11,destination,Hessen
dc16908,Norten-Hardenberg,0,37176,9.9500600000,51.6291440000,dc16908,22,destination,Niedersachsen
dc16908,Norten-Hardenberg,0,37176,9.9500600000,51.6291440000,dc16908,22,destination,Niedersachsen
dc26451,Braunlage,0,38700,10.6602820000,51.6582310000,dc26451,17,destination,Niedersachsen
dc26451,Braunlage,0,38700,10.6602820000,51.6582310000,dc26451,17,destination,Niedersachsen
dc74926,Otterndorf,0,21762,8.8952940000,53.8230090000,dc74926,22,destination,Niedersachsen
dc17968,Kemberg  OT Lubast,0,6901,12.6297450000,51.7472880000,dc17968,11,destination,Sachsen-Anhalt
dc17968,Kemberg  OT Lubast,0,6901,12.6297450000,51.7472880000,dc17968,11,destination,Sachsen-Anhalt
dc21868,Heidelberg,0,69115,8.6728260000,49.4090780000,dc21868,22,destination,Baden-Württemberg
dc21868,Heidelberg,0,69115,8.6728260000,49.4090780000,dc21868,22,destination,Baden-Württemberg
dc21179,München,0,80538,11.5987780000,48.1526050000,dc21179,22,destination,Bayern
dc47007,Bad Birnbach,0,84364,13.1020357000,48.4875202000,dc47007,17,destination,Bayern
dc47007,Bad Birnbach,0,84364,13.1020357000,48.4875202000,dc47007,17,destination,Bayern
dc15291,Fulda,0,36039,9.7002240000,50.6003620000,dc15291,22,destination,Hessen
dc15291,Fulda,0,36039,9.7002240000,50.6003620000,dc15291,22,destination,Hessen
dc15291,Fulda,0,36039,9.7002240000,50.6003620000,dc15291,22,destination,Hessen
dc35802,Schoenefeld,0,12529,13.4981480000,52.3892900000,dc35802,22,destination,Brandenburg
dc35802,Schoenefeld,0,12529,13.4981480000,52.3892900000,dc35802,22,destination,Brandenburg
dc36446,Dresden,0,1149,13.7128620000,51.0335950000,dc36446,11,destination,Sachsen
dc36446,Dresden,0,1149,13.7128620000,51.0335950000,dc36446,11,destination,Sachsen
dc81537,Frankfurt am Main,0,60327,8.6462150000,50.0974850000,dc81537,11,destination,Hessen
dc54642,Muenchen,0,81673,11.6282080000,48.1315390000,dc54642,22,destination,Bayern
dc54642,Muenchen,0,81673,11.6282080000,48.1315390000,dc54642,22,destination,Bayern
dc18260,Frankfurt am Main,0,60549,8.5913640000,50.0559340000,dc18260,22,destination,Hessen
dc18260,Frankfurt am Main,0,60549,8.5913640000,50.0559340000,dc18260,22,destination,Hessen
dc37144,Hamburg,0,20539,10.0299840000,53.5354190000,dc37144,22,destination,Unknown
dc37144,Hamburg,0,20539,10.0299840000,53.5354190000,dc37144,22,destination,Unknown
dc37144,Hamburg,0,20539,10.0299840000,53.5354190000,dc37144,22,destination,Unknown
dc40879,Muenchen,0,81673,11.6281030000,48.1315520000,dc40879,22,destination,Bayern
dc40879,Muenchen,0,81673,11.6281030000,48.1315520000,dc40879,22,destination,Bayern
dc35739,Stuttgart,0,70499,9.0939180000,48.8212430000,dc35739,22,destination,Baden-Württemberg
dc35739,Stuttgart,0,70499,9.0939180000,48.8212430000,dc35739,22,destination,Baden-Württemberg
dc71401,Kemnath,0,95478,11.9524590000,49.8639980000,dc71401,11,destination,Bayern
dc18315,Linthe,0,14822,12.7858090000,52.1549350000,dc18315,14,destination,Brandenburg
dc18315,Linthe,0,14822,12.7858090000,52.1549350000,dc18315,14,destination,Brandenburg
dc21671,Krün,0,82494,11.2135230000,47.4725160000,dc21671,22,destination,Bayern
dc21671,Krün,0,82494,11.2135230000,47.4725160000,dc21671,22,destination,Bayern
dc53169,Grafenau,0,94481,13.3891720000,48.8670740000,dc53169,8,destination,Bayern
dc17498,Oberkirch,0,77704,8.0907540000,48.5086710000,dc17498,11,destination,Baden-Württemberg
dc37749,Koserow,0,17459,13.9920282000,54.0516357000,dc37749,22,destination,Mecklenburg-Vorpommern
dc37749,Koserow,0,17459,13.9920282000,54.0516357000,dc37749,22,destination,Mecklenburg-Vorpommern
dc25659,Michendorf,0,14552,13.0613390000,52.2835970000,dc25659,22,destination,Brandenburg
dc25659,Michendorf,0,14552,13.0613390000,52.2835970000,dc25659,22,destination,Brandenburg
dc31437,Koelleda,0,99625,11.2518290000,51.1905900000,dc31437,11,destination,Thüringen
dc31437,Koelleda,0,99625,11.2518290000,51.1905900000,dc31437,11,destination,Thüringen
dc28862,Gummersbach,0,51645,7.5311300000,50.9834810000,dc28862,22,destination,Nordrhein-Westfalen
dc28862,Gummersbach,0,51645,7.5311300000,50.9834810000,dc28862,22,destination,Nordrhein-Westfalen
dc12349,Friedrichsruh,0,21521,10.3409480000,53.5307110000,dc12349,22,destination,Schleswig-Holstein
dc76610,Rudersberg,0,73635,9.5304880000,48.8772050000,dc76610,11,destination,Baden-Württemberg
dc18944,Hettstedt,0,6333,11.5054950000,51.6624910000,dc18944,22,destination,Sachsen-Anhalt
dc513792,Giessen,0,35392,8.6782510000,50.5753860000,dc513792,11,destination,Hessen
dc513792,Giessen,0,35392,8.6782510000,50.5753860000,dc513792,11,destination,Hessen
dc38608,Konzell,0,94357,12.7262650000,49.0935050000,dc38608,14,destination,Bayern
dc38608,Konzell,0,94357,12.7262650000,49.0935050000,dc38608,14,destination,Bayern
dc36765,Lauterbach,0,78730,8.3569480000,48.2261650000,dc36765,22,destination,Baden-Württemberg
dc36765,Lauterbach,0,78730,8.3569480000,48.2261650000,dc36765,22,destination,Baden-Württemberg
dc80135,Rettert,0,56370,7.9407640000,50.2325410000,dc80135,11,destination,Rheinland-Pfalz
dc80135,Rettert,0,56370,7.9407640000,50.2325410000,dc80135,11,destination,Rheinland-Pfalz
dc25959,Ettlingen,0,76275,8.4047980000,48.9415270000,dc25959,17,destination,Baden-Württemberg
dc25959,Ettlingen,0,76275,8.4047980000,48.9415270000,dc25959,17,destination,Baden-Württemberg
dc25859,Oberstaufen,0,87534,10.0136380000,47.5507260000,dc25859,22,destination,Bayern
dc25859,Oberstaufen,0,87534,10.0136380000,47.5507260000,dc25859,22,destination,Bayern
dc25799,Serfaus,0,6534,10.5981530000,47.0404210000,dc25799,11,destination,Tirol
dc25799,Serfaus,0,6534,10.5981530000,47.0404210000,dc25799,11,destination,Tirol
dc49453,Papenburg,0,26871,7.3853313000,53.0874900000,dc49453,11,destination,Niedersachsen
dc22033,Tübingen,0,72070,9.0523950000,48.5198850000,dc22033,22,destination,Baden-Württemberg
dc22637,Saarbrücken,0,66117,6.9907480000,49.2288870000,dc22637,17,destination,Saarland
dc43773,Bad Koetzting,0,93444,12.8538810000,49.1776830000,dc43773,11,destination,Bayern
dc22479,Straubing,0,94315,12.5671520000,48.8746520000,dc22479,11,destination,Bayern
dc22479,Straubing,0,94315,12.5671520000,48.8746520000,dc22479,11,destination,Bayern
dc75331,Weissach,0,83700,11.7580310000,47.6866210000,dc75331,6,destination,Bayern
dc75331,Weissach,0,83700,11.7580310000,47.6866210000,dc75331,6,destination,Bayern
dc37409,Lauterbach/ Putbus,0,18581,13.5113050000,54.3443930000,dc37409,22,destination,Mecklenburg-Vorpommern
dc30167,Bad Salzschlirf,0,36364,9.5048750000,50.6219410000,dc30167,22,destination,Hessen
dc24385,Altoetting,0,84503,12.6773430000,48.2239330000,dc24385,22,destination,Bayern
dc24385,Altoetting,0,84503,12.6773430000,48.2239330000,dc24385,22,destination,Bayern
dc14960,Freising,0,85354,11.7446720000,48.4011020000,dc14960,11,destination,Bayern
dc21178,Lindau,0,88131,9.6822780000,47.5443270000,dc21178,11,destination,Bayern
dc21178,Lindau,0,88131,9.6822780000,47.5443270000,dc21178,11,destination,Bayern
dc29307,Bayreuth,0,95444,11.5791670000,49.9491180000,dc29307,22,destination,Bayern
dc29307,Bayreuth,0,95444,11.5791670000,49.9491180000,dc29307,22,destination,Bayern
dc21488,Dresden,0,1097,13.7392600000,51.0641900000,dc21488,11,destination,Sachsen
dc21488,Dresden,0,1097,13.7392600000,51.0641900000,dc21488,11,destination,Sachsen
dc37577,Bad Kötzting,0,93444,12.8294780000,49.2158650000,dc37577,22,destination,Bayern
dc24135,Baden-Baden,0,76530,8.2418400000,48.7561790000,dc24135,11,destination,Baden-Württemberg
dc24135,Baden-Baden,0,76530,8.2418400000,48.7561790000,dc24135,11,destination,Baden-Württemberg
dc24135,Baden-Baden,0,76530,8.2418400000,48.7561790000,dc24135,11,destination,Baden-Württemberg
dc532708,Lauenburg,0,21481,10.5461260000,53.3719080000,dc532708,11,destination,Schleswig-Holstein
dc532708,Lauenburg,0,21481,10.5461260000,53.3719080000,dc532708,11,destination,Schleswig-Holstein
dc16988,Wirsberg,0,95339,11.6097790000,50.1009110000,dc16988,22,destination,Bayern
dc16988,Wirsberg,0,95339,11.6097790000,50.1009110000,dc16988,22,destination,Bayern
dc35428,Fuessen,0,87629,10.6164780000,47.5770150000,dc35428,17,destination,Bayern
dc35428,Fuessen,0,87629,10.6164780000,47.5770150000,dc35428,17,destination,Bayern
dc15139,Gronau,0,48599,7.0426260000,52.1896560000,dc15139,22,destination,Nordrhein-Westfalen
dc15139,Gronau,0,48599,7.0426260000,52.1896560000,dc15139,22,destination,Nordrhein-Westfalen
dc16365,Warberg,0,38378,10.9168330000,52.1832620000,dc16365,17,destination,Niedersachsen
dc16365,Warberg,0,38378,10.9168330000,52.1832620000,dc16365,17,destination,Niedersachsen
dc18356,Wernberg-Köblitz,0,92533,12.1656650000,49.5388970000,dc18356,22,destination,Bayern
dc38202,Nordenham,0,26954,8.4414160000,53.4835510000,dc38202,22,destination,Niedersachsen
dc38202,Nordenham,0,26954,8.4414160000,53.4835510000,dc38202,22,destination,Niedersachsen
dc22576,Landstuhl,0,66849,7.5666010000,49.4149110000,dc22576,14,destination,Rheinland-Pfalz
dc22576,Landstuhl,0,66849,7.5666010000,49.4149110000,dc22576,14,destination,Rheinland-Pfalz
dc11696,Heidelberg,0,69115,8.6918740000,49.4070050000,dc11696,22,destination,Baden-Württemberg
dc15052,Karlsruhe,0,76227,8.4656980000,48.9981210000,dc15052,22,destination,Baden-Württemberg
dc26672,Baden-Baden,0,76530,8.2419820000,48.7572730000,dc26672,11,destination,Baden-Württemberg
dc16513,Tegernsee,0,83684,11.7613520000,47.7174850000,dc16513,22,destination,Bayern
dc16513,Tegernsee,0,83684,11.7613520000,47.7174850000,dc16513,22,destination,Bayern
dc14495,Trier,0,54290,6.6366760000,49.7497830000,dc14495,22,destination,Rheinland-Pfalz
dc20558,Boppard,0,56154,7.5853300000,50.2323810000,dc20558,22,destination,Rheinland-Pfalz
dc20558,Boppard,0,56154,7.5853300000,50.2323810000,dc20558,22,destination,Rheinland-Pfalz
dc12008,Grenzach-Wyhlen,0,79639,7.6582550000,47.5534620000,dc12008,22,destination,Baden-Württemberg
dc51024,Scheidegg,0,88175,9.8446200000,47.5741180000,dc51024,22,destination,Bayern
dc51024,Scheidegg,0,88175,9.8446200000,47.5741180000,dc51024,22,destination,Bayern
dc51024,Scheidegg,0,88175,9.8446200000,47.5741180000,dc51024,22,destination,Bayern
dc14150,Waging am See,0,83329,12.7500970000,47.9406660000,dc14150,11,destination,Bayern
dc14150,Waging am See,0,83329,12.7500970000,47.9406660000,dc14150,11,destination,Bayern
dc50837,Einbeck,0,37574,9.8594450000,51.8203960000,dc50837,11,destination,Niedersachsen
dc53186,Goettingen,0,37073,9.9269150000,51.5346910000,dc53186,11,destination,Niedersachsen
dc53186,Goettingen,0,37073,9.9269150000,51.5346910000,dc53186,11,destination,Niedersachsen
dc17505,Oberstdorf,0,87561,10.2724880000,47.4061000000,dc17505,22,destination,Bayern
dc12023,Frechen bei Köln,0,50226,6.8089810000,50.9077140000,dc12023,11,destination,Nordrhein-Westfalen
dc12023,Frechen bei Köln,0,50226,6.8089810000,50.9077140000,dc12023,11,destination,Nordrhein-Westfalen
dc21003,Schwelm,0,58332,7.3082650000,51.2981560000,dc21003,22,destination,Nordrhein-Westfalen
dc21003,Schwelm,0,58332,7.3082650000,51.2981560000,dc21003,22,destination,Nordrhein-Westfalen
dc60810,Weinheim,0,69469,8.6894310000,49.5558750000,dc60810,11,destination,Baden-Württemberg
dc60810,Weinheim,0,69469,8.6894310000,49.5558750000,dc60810,11,destination,Baden-Württemberg
dc60567,Lembruch,0,49459,8.3718230000,52.5231950000,dc60567,22,destination,Niedersachsen
dc37489,Oppenau,0,77728,8.1856480000,48.4922440000,dc37489,22,destination,Baden-Württemberg
dc37489,Oppenau,0,77728,8.1856480000,48.4922440000,dc37489,22,destination,Baden-Württemberg
dc18227,Munsingen,0,72525,9.4948210000,48.4131480000,dc18227,22,destination,Baden-Württemberg
dc14173,Kinding,0,85125,11.3834770000,49.0000990000,dc14173,11,destination,Bayern
dc14161,Freilassing,0,83395,12.9540440000,47.8437230000,dc14161,17,destination,Bayern
dc23471,Hosbach,0,63768,9.2281860000,49.9993280000,dc23471,11,destination,Bayern
dc23471,Hosbach,0,63768,9.2281860000,49.9993280000,dc23471,11,destination,Bayern
dc41603,Dudenhofen,0,67373,8.3893761000,49.3160071000,dc41603,11,destination,Rheinland-Pfalz
dc41603,Dudenhofen,0,67373,8.3893761000,49.3160071000,dc41603,11,destination,Rheinland-Pfalz
dc10672,Hamburg,0,20148,9.9911750000,53.5639850000,dc10672,22,destination,Unknown
dc10672,Hamburg,0,20148,9.9911750000,53.5639850000,dc10672,22,destination,Unknown
dc14713,Chieming,0,83339,12.5062150000,47.9237170000,dc14713,17,destination,Bayern
dc14713,Chieming,0,83339,12.5062150000,47.9237170000,dc14713,17,destination,Bayern
dc14713,Chieming,0,83339,12.5062150000,47.9237170000,dc14713,17,destination,Bayern
dc13517,Reit im Winkl,0,83242,12.4817210000,47.6668900000,dc13517,22,destination,Bayern
dc17296,Parin,0,23948,11.1905220000,53.9127030000,dc17296,14,destination,Mecklenburg-Vorpommern
dc17295,Stellshagen,0,23948,11.1416820000,53.9463760000,dc17295,14,destination,Mecklenburg-Vorpommern
dc29845,Herborn,0,35745,8.3064030000,50.6687040000,dc29845,11,destination,Hessen
dc29845,Herborn,0,35745,8.3064030000,50.6687040000,dc29845,11,destination,Hessen
dc18234,Flensburg,0,24939,9.4332920000,54.7924870000,dc18234,22,destination,Schleswig-Holstein
dc18234,Flensburg,0,24939,9.4332920000,54.7924870000,dc18234,22,destination,Schleswig-Holstein
dc18249,Gohren,0,18586,13.7447180000,54.3419800000,dc18249,22,destination,Mecklenburg-Vorpommern
dc63321,Heidelberg,0,69120,8.6908100000,49.4155560000,dc63321,22,destination,Baden-Württemberg
dc17342,Parsdorf,0,85599,11.7810230000,48.1435110000,dc17342,11,destination,Bayern
dc75509,Carolinensiel,0,26409,7.7984800000,53.6915100000,dc75509,17,destination,Niedersachsen
dc26688,Oeversee,0,24988,9.4364650000,54.7027820000,dc26688,17,destination,Schleswig-Holstein
dc26688,Oeversee,0,24988,9.4364650000,54.7027820000,dc26688,17,destination,Schleswig-Holstein
dc27498,Sierksdorf,0,23730,10.7577150000,54.0587780000,dc27498,22,destination,Schleswig-Holstein
dc27498,Sierksdorf,0,23730,10.7577150000,54.0587780000,dc27498,22,destination,Schleswig-Holstein
dc14537,Aschau,0,83229,12.3234830000,47.7642750000,dc14537,11,destination,Bayern
dc14537,Aschau,0,83229,12.3234830000,47.7642750000,dc14537,11,destination,Bayern
dc14366,Nürnberg,0,90402,11.0694750000,49.4483550000,dc14366,11,destination,Bayern
dc14366,Nürnberg,0,90402,11.0694750000,49.4483550000,dc14366,11,destination,Bayern
dc25946,Bad Peterstal-Griesbach,0,77740,8.2032970000,48.4286310000,dc25946,22,destination,Baden-Württemberg
dc25946,Bad Peterstal-Griesbach,0,77740,8.2032970000,48.4286310000,dc25946,22,destination,Baden-Württemberg
dc22461,Niebuell,0,25899,8.8323650000,54.7912410000,dc22461,22,destination,Schleswig-Holstein
dc49452,Boppard,0,56154,7.5923480000,50.2570780000,dc49452,17,destination,Rheinland-Pfalz
dc28642,Oberstaufen,0,87534,10.0212270000,47.5704040000,dc28642,14,destination,Bayern
dc58792,Happurg,0,91230,11.4804070000,49.4724340000,dc58792,22,destination,Bayern
dc21177,Kiel,0,24105,10.1558520000,54.3397410000,dc21177,22,destination,Schleswig-Holstein
dc21177,Kiel,0,24105,10.1558520000,54.3397410000,dc21177,22,destination,Schleswig-Holstein
dc37792,Wolfach-Kirnbach,0,77709,8.2149650000,48.2817890000,dc37792,22,destination,Baden-Württemberg
dc15159,Hornbach,0,66500,7.3692460000,49.1867580000,dc15159,22,destination,Rheinland-Pfalz
dc15159,Hornbach,0,66500,7.3692460000,49.1867580000,dc15159,22,destination,Rheinland-Pfalz
dc16347,Zirndorf,0,90513,10.9547740000,49.4388290000,dc16347,11,destination,Bayern
dc37402,Burgwedel,0,30938,9.8428610000,52.4914310000,dc37402,11,destination,Niedersachsen
dc37465,Seewald Besenfeld,0,72297,8.4198300000,48.5916360000,dc37465,22,destination,Baden-Württemberg
dc18325,Friedrichshafen,0,88045,9.4414410000,47.6756780000,dc18325,17,destination,Baden-Württemberg
dc18325,Friedrichshafen,0,88045,9.4414410000,47.6756780000,dc18325,17,destination,Baden-Württemberg
dc12877,Bad Elster,0,8645,12.2395300000,50.2852690000,dc12877,22,destination,Sachsen
dc12877,Bad Elster,0,8645,12.2395300000,50.2852690000,dc12877,22,destination,Sachsen
dc19930,Tübingen,0,72072,9.0598370000,48.5099970000,dc19930,11,destination,Baden-Württemberg
dc19930,Tübingen,0,72072,9.0598370000,48.5099970000,dc19930,11,destination,Baden-Württemberg
dc56973,Stemmen,0,27389,9.5528470000,53.2220270000,dc56973,11,destination,Niedersachsen
dc37331,Adenau,0,53518,6.9226500000,50.3813630000,dc37331,17,destination,Rheinland-Pfalz
dc37331,Adenau,0,53518,6.9226500000,50.3813630000,dc37331,17,destination,Rheinland-Pfalz
dc15252,Rotenburg (Wümme),0,27356,9.3953910000,53.1049870000,dc15252,22,destination,Niedersachsen
dc16538,Saarbrucken,0,66111,6.9998670000,49.2316570000,dc16538,22,destination,Saarland
dc16538,Saarbrucken,0,66111,6.9998670000,49.2316570000,dc16538,22,destination,Saarland
dc56819,Regensburg,0,93047,12.1074070000,49.0139870000,dc56819,14,destination,Bayern
dc56819,Regensburg,0,93047,12.1074070000,49.0139870000,dc56819,14,destination,Bayern
dc15987,Rheine,0,48431,7.4398340000,52.2798230000,dc15987,17,destination,Nordrhein-Westfalen
dc15987,Rheine,0,48431,7.4398340000,52.2798230000,dc15987,17,destination,Nordrhein-Westfalen
dc17504,Schneizlreuth,0,83458,12.7841930000,47.7118250000,dc17504,17,destination,Bayern
dc37133,Berlin,0,10117,13.3883020000,52.5214600000,dc37133,17,destination,Berlin
dc37133,Berlin,0,10117,13.3883020000,52.5214600000,dc37133,17,destination,Berlin
dc16920,Arnsberg,0,59821,8.0645670000,51.4009020000,dc16920,22,destination,Nordrhein-Westfalen
dc21226,München,0,81675,11.6013340000,48.1400560000,dc21226,14,destination,Bayern
dc21226,München,0,81675,11.6013340000,48.1400560000,dc21226,14,destination,Bayern
dc25026,Hinte,0,26759,7.1985920000,53.4104880000,dc25026,22,destination,Niedersachsen
dc53174,Eching,0,85386,11.6252730000,48.2989410000,dc53174,11,destination,Bayern
dc53174,Eching,0,85386,11.6252730000,48.2989410000,dc53174,11,destination,Bayern
dc53174,Eching,0,85386,11.6252730000,48.2989410000,dc53174,11,destination,Bayern
dc26671,Schwendi,0,88477,9.9754070000,48.1762240000,dc26671,11,destination,Baden-Württemberg
dc16657,Oberstdorf,0,87561,10.2541610000,47.4100290000,dc16657,11,destination,Bayern
dc16657,Oberstdorf,0,87561,10.2541610000,47.4100290000,dc16657,11,destination,Bayern
dc35251,Pirna,0,1796,13.9424870000,50.9625320000,dc35251,11,destination,Sachsen
dc34927,Meppen,0,49716,7.2944800000,52.6967310000,dc34927,22,destination,Niedersachsen
dc34927,Meppen,0,49716,7.2944800000,52.6967310000,dc34927,22,destination,Niedersachsen
dc20034,Dresden,0,1069,13.7352850000,51.0425640000,dc20034,22,destination,Sachsen
dc59591,Rothenburg ob der Tauber,0,91541,10.1856140000,49.3798470000,dc59591,11,destination,Bayern
dc59591,Rothenburg ob der Tauber,0,91541,10.1856140000,49.3798470000,dc59591,11,destination,Bayern
dc70916,Ravensburg,0,88214,9.6078590000,47.7802400000,dc70916,14,destination,Baden-Württemberg
dc81518,Wuerzburg,0,97070,9.9303370000,49.7904790000,dc81518,22,destination,Bayern
dc25260,Garmisch-Partenkirchen,0,82467,11.1007920000,47.4921760000,dc25260,11,destination,Bayern
dc25260,Garmisch-Partenkirchen,0,82467,11.1007920000,47.4921760000,dc25260,11,destination,Bayern
dc70915,Feldafing,0,82340,11.3013180000,47.9528070000,dc70915,22,destination,Bayern
dc70915,Feldafing,0,82340,11.3013180000,47.9528070000,dc70915,22,destination,Bayern
dc60813,Saarbruecken,0,66129,7.0387210000,49.1886600000,dc60813,22,destination,Saarland
dc38207,Ringsheim,0,77975,7.7804900000,48.2444650000,dc38207,22,destination,Baden-Württemberg
dc24381,Königsfeld,0,78126,8.4147610000,48.1395520000,dc24381,11,destination,Baden-Württemberg
dc39468,Emsdetten,0,48282,7.5314800000,52.1782080000,dc39468,11,destination,Nordrhein-Westfalen
dc39468,Emsdetten,0,48282,7.5314800000,52.1782080000,dc39468,11,destination,Nordrhein-Westfalen
dc74833,Braeunlingen,0,78199,8.4469230000,47.9300060000,dc74833,22,destination,Baden-Württemberg
dc74833,Braeunlingen,0,78199,8.4469230000,47.9300060000,dc74833,22,destination,Baden-Württemberg
dc38613,Gersfeld,0,36129,9.9470330000,50.4993610000,dc38613,11,destination,Hessen
dc38572,Ruesselsheim,0,65428,8.4452820000,49.9823870000,dc38572,11,destination,Hessen
dc16197,Nonnenhorn,0,88149,9.6112880000,47.5755060000,dc16197,22,destination,Bayern
dc18292,Bad Saeckingen,0,79713,7.9843270000,47.5614200000,dc18292,22,destination,Baden-Württemberg
dc11692,Dipperz,0,36160,9.8145520000,50.5177760000,dc11692,14,destination,Hessen
dc13345,Bispingen,0,29646,9.9976100000,53.0821320000,dc13345,11,destination,Niedersachsen
dc19019,Karlsruhe,0,76133,8.3863150000,49.0095560000,dc19019,22,destination,Baden-Württemberg
dc19019,Karlsruhe,0,76133,8.3863150000,49.0095560000,dc19019,22,destination,Baden-Württemberg
dc13792,Feldberg,0,79868,8.1091890000,47.8563580000,dc13792,4,destination,Baden-Württemberg
dc13792,Feldberg,0,79868,8.1091890000,47.8563580000,dc13792,4,destination,Baden-Württemberg
dc19505,"Benz, Ortsteil Gamehl",0,23970,11.6171040000,53.9181080000,dc19505,11,destination,Mecklenburg-Vorpommern
dc19505,"Benz, Ortsteil Gamehl",0,23970,11.6171040000,53.9181080000,dc19505,11,destination,Mecklenburg-Vorpommern
dc76052,Brakel-Gehrden,0,33034,9.1185360000,51.6534180000,dc76052,22,destination,Nordrhein-Westfalen
dc76052,Brakel-Gehrden,0,33034,9.1185360000,51.6534180000,dc76052,22,destination,Nordrhein-Westfalen
dc17972,Glowe,0,18551,13.6279230000,54.5772910000,dc17972,22,destination,Mecklenburg-Vorpommern
dc40635,Fuessen,0,87629,10.7001150000,47.5699040000,dc40635,22,destination,Bayern
dc40635,Fuessen,0,87629,10.7001150000,47.5699040000,dc40635,22,destination,Bayern
dc13151,Wernigerode,0,38855,10.7872050000,51.8310820000,dc13151,22,destination,Sachsen-Anhalt
dc15669,Ansbach,0,91522,10.5734740000,49.3032460000,dc15669,22,destination,Bayern
dc19607,Karlsfeld,0,85757,11.4711620000,48.2222820000,dc19607,17,destination,Bayern
dc19607,Karlsfeld,0,85757,11.4711620000,48.2222820000,dc19607,17,destination,Bayern
dc34777,Haltern am See,0,45721,7.2229790000,51.7396820000,dc34777,17,destination,Nordrhein-Westfalen
dc34777,Haltern am See,0,45721,7.2229790000,51.7396820000,dc34777,17,destination,Nordrhein-Westfalen
dc9990,München,0,80335,11.5575920000,48.1394870000,dc9990,14,destination,Bayern
dc9990,München,0,80335,11.5575920000,48.1394870000,dc9990,14,destination,Bayern
dc37868,Landau in der Pfalz,0,76829,8.1368509000,49.1925091000,dc37868,14,destination,Rheinland-Pfalz
dc37868,Landau in der Pfalz,0,76829,8.1368509000,49.1925091000,dc37868,14,destination,Rheinland-Pfalz
dc12647,Fuessen,0,87629,10.7103360000,47.5796020000,dc12647,11,destination,Bayern
dc30595,Velen,0,46342,6.9845120000,51.8928400000,dc30595,22,destination,Nordrhein-Westfalen
dc30595,Velen,0,46342,6.9845120000,51.8928400000,dc30595,22,destination,Nordrhein-Westfalen
dc25850,Bad Aibling,0,83043,12.0221950000,47.8533850000,dc25850,22,destination,Bayern
dc25850,Bad Aibling,0,83043,12.0221950000,47.8533850000,dc25850,22,destination,Bayern
dc12309,Düsseldorf,0,40215,6.7858370000,51.2183260000,dc12309,22,destination,Nordrhein-Westfalen
dc12309,Düsseldorf,0,40215,6.7858370000,51.2183260000,dc12309,22,destination,Nordrhein-Westfalen
dc46904,Garmisch-Partenkirchen,0,82467,11.0835252000,47.4900114000,dc46904,11,destination,Bayern
dc11119,Dresden,0,1067,13.7353930000,51.0522230000,dc11119,11,destination,Sachsen
dc11119,Dresden,0,1067,13.7353930000,51.0522230000,dc11119,11,destination,Sachsen
dc38206,Hinterzarten,0,79856,8.1055290000,47.8999910000,dc38206,22,destination,Baden-Württemberg
dc37871,Perl-Nennig,0,66706,6.3771930000,49.5400500000,dc37871,11,destination,Saarland
dc37871,Perl-Nennig,0,66706,6.3771930000,49.5400500000,dc37871,11,destination,Saarland
dc74677,Hamburg,0,22397,10.0913600000,53.6732860000,dc74677,22,destination,Unknown
dc74677,Hamburg,0,22397,10.0913600000,53.6732860000,dc74677,22,destination,Unknown
dc74668,Koeln,0,51069,7.0686640000,50.9803550000,dc74668,11,destination,Nordrhein-Westfalen
dc58171,Reit im Winkl,0,83242,12.4706079000,47.6780081000,dc58171,11,destination,Bayern
dc58171,Reit im Winkl,0,83242,12.4706079000,47.6780081000,dc58171,11,destination,Bayern
dc18502,Hovelhof,0,33161,8.6612230000,51.8233660000,dc18502,11,destination,Nordrhein-Westfalen
dc18502,Hovelhof,0,33161,8.6612230000,51.8233660000,dc18502,11,destination,Nordrhein-Westfalen
dc12952,Starnberg,0,82319,11.3501560000,48.0016590000,dc12952,22,destination,Bayern
dc12952,Starnberg,0,82319,11.3501560000,48.0016590000,dc12952,22,destination,Bayern
dc15528,Loerrach,0,79539,7.6680410000,47.6118560000,dc15528,11,destination,Baden-Württemberg
dc15528,Loerrach,0,79539,7.6680410000,47.6118560000,dc15528,11,destination,Baden-Württemberg
dc29509,Sasbach,0,77880,8.1134170000,48.6379600000,dc29509,22,destination,Baden-Württemberg
dc18217,Rödermark,0,63322,8.8037550000,49.9850650000,dc18217,11,destination,Hessen
dc19882,Goslar,0,38640,10.4310450000,51.9098900000,dc19882,14,destination,Niedersachsen
dc19882,Goslar,0,38640,10.4310450000,51.9098900000,dc19882,14,destination,Niedersachsen
dc16062,Lindau-Bodolz,0,88131,9.6728060000,47.5674060000,dc16062,17,destination,Bayern
dc16062,Lindau-Bodolz,0,88131,9.6728060000,47.5674060000,dc16062,17,destination,Bayern
dc51032,Schlitz,0,36110,9.5598650000,50.6738830000,dc51032,11,destination,Hessen
dc19351,Wittlich,0,54516,6.8885800000,49.9709080000,dc19351,11,destination,Rheinland-Pfalz
dc19351,Wittlich,0,54516,6.8885800000,49.9709080000,dc19351,11,destination,Rheinland-Pfalz
dc58797,Hiddenhausen,0,32120,8.6174320000,52.1726370000,dc58797,17,destination,Nordrhein-Westfalen
dc20651,Schmallenberg,0,57392,8.4434960000,51.1720870000,dc20651,14,destination,Nordrhein-Westfalen
dc62945,Moelln,0,23879,10.7242840000,53.6323420000,dc62945,17,destination,Schleswig-Holstein
dc75647,Aurach,0,91589,10.3391820000,49.2370630000,dc75647,11,destination,Bayern
dc75647,Aurach,0,91589,10.3391820000,49.2370630000,dc75647,11,destination,Bayern
dc37490,Dautphetal,0,35232,8.5422170000,50.8383320000,dc37490,22,destination,Hessen
dc23570,Aschaffenburg,0,63739,9.1430410000,49.9715370000,dc23570,11,destination,Bayern
dc23570,Aschaffenburg,0,63739,9.1430410000,49.9715370000,dc23570,11,destination,Bayern
dc27236,Reit Im Winkl,0,83242,12.5843610000,47.6565540000,dc27236,11,destination,Bayern
dc36148,Hamburg,0,21037,10.1847540000,53.3989240000,dc36148,22,destination,Unknown
dc36148,Hamburg,0,21037,10.1847540000,53.3989240000,dc36148,22,destination,Unknown
dc37744,Waren,0,17192,12.6866840000,53.5167620000,dc37744,11,destination,Mecklenburg-Vorpommern
dc37744,Waren,0,17192,12.6866840000,53.5167620000,dc37744,11,destination,Mecklenburg-Vorpommern
dc16781,Munich,0,81671,11.6372850000,48.1183220000,dc16781,11,destination,Bayern
dc37493,Illertissen,0,89257,10.1122650000,48.2218200000,dc37493,11,destination,Bayern
dc38214,Guestrow,0,18273,15.2464760000,46.8124750000,dc38214,11,destination,Steiermark
dc25170,Herten,0,45699,7.1233810000,51.5940640000,dc25170,11,destination,Nordrhein-Westfalen
dc25170,Herten,0,45699,7.1233810000,51.5940640000,dc25170,11,destination,Nordrhein-Westfalen
dc54591,Nuerburg,0,53520,6.9529300000,50.3418170000,dc54591,22,destination,Rheinland-Pfalz
dc16632,Frankenberg,0,35066,8.8015430000,51.0591400000,dc16632,22,destination,Hessen
dc15841,Woerthsee,0,82237,11.1983620000,48.0631180000,dc15841,14,destination,Bayern
dc13540,Baesweiler,0,52499,6.1789280000,50.9105000000,dc13540,22,destination,Nordrhein-Westfalen
dc35239,Reken,0,48734,7.0233475000,51.8046836000,dc35239,22,destination,Nordrhein-Westfalen
dc30011,Freiburg,0,79106,7.8417400000,48.0031360000,dc30011,22,destination,Baden-Württemberg
dc30011,Freiburg,0,79106,7.8417400000,48.0031360000,dc30011,22,destination,Baden-Württemberg
dc37574,Ratzeburg,0,23909,10.7644790000,53.6990190000,dc37574,22,destination,Schleswig-Holstein
dc60565,Delbrueck,0,33129,8.4941380000,51.7870920000,dc60565,22,destination,Nordrhein-Westfalen
dc40638,Heppenheim,0,64646,8.6449380000,49.6413600000,dc40638,11,destination,Hessen
dc40638,Heppenheim,0,64646,8.6449380000,49.6413600000,dc40638,11,destination,Hessen
dc17897,Pirmasens,0,66954,7.5643810000,49.1883440000,dc17897,22,destination,Rheinland-Pfalz
dc17897,Pirmasens,0,66954,7.5643810000,49.1883440000,dc17897,22,destination,Rheinland-Pfalz
dc34027,Senheim-Senhals,0,56820,7.2027824000,50.0864104000,dc34027,11,destination,Rheinland-Pfalz
dc34027,Senheim-Senhals,0,56820,7.2027824000,50.0864104000,dc34027,11,destination,Rheinland-Pfalz
dc58796,Grainet,0,94143,13.6676520000,48.7942970000,dc58796,11,destination,Bayern
dc58796,Grainet,0,94143,13.6676520000,48.7942970000,dc58796,11,destination,Bayern
dc14299,Köln,0,50679,6.9690180000,50.9404030000,dc14299,22,destination,Nordrhein-Westfalen
dc23635,Mainz,0,55116,8.2807120000,49.9968640000,dc23635,11,destination,Rheinland-Pfalz
dc23635,Mainz,0,55116,8.2807120000,49.9968640000,dc23635,11,destination,Rheinland-Pfalz
dc19079,Leipzig,0,4109,12.3767870000,51.3436570000,dc19079,11,destination,Sachsen
dc19079,Leipzig,0,4109,12.3767870000,51.3436570000,dc19079,11,destination,Sachsen
dc35345,Aachen,0,52062,6.0886300000,50.7794960000,dc35345,22,destination,Nordrhein-Westfalen
dc35345,Aachen,0,52062,6.0886300000,50.7794960000,dc35345,22,destination,Nordrhein-Westfalen
dc31577,Aschheim / Dornach,0,85609,11.6823670000,48.1515720000,dc31577,22,destination,Bayern
dc31577,Aschheim / Dornach,0,85609,11.6823670000,48.1515720000,dc31577,22,destination,Bayern
dc31022,Dresden,0,1067,13.7431530000,51.0518480000,dc31022,22,destination,Sachsen
dc31022,Dresden,0,1067,13.7431530000,51.0518480000,dc31022,22,destination,Sachsen
dc30833,Duesseldorf,0,40221,6.7504700000,51.2149120000,dc30833,22,destination,Nordrhein-Westfalen
dc35362,Düsseldorf,0,40547,6.7352840000,51.2424800000,dc35362,22,destination,Nordrhein-Westfalen
dc35362,Düsseldorf,0,40547,6.7352840000,51.2424800000,dc35362,22,destination,Nordrhein-Westfalen
dc30165,Hamburg,0,20097,10.0146880000,53.5455440000,dc30165,22,destination,Unknown
dc11120,Konstanz,0,78467,9.1577970000,47.6739240000,dc11120,11,destination,Baden-Württemberg
dc11120,Konstanz,0,78467,9.1577970000,47.6739240000,dc11120,11,destination,Baden-Württemberg
dc15805,Hilden,0,40724,6.9509960000,51.1705840000,dc15805,22,destination,Nordrhein-Westfalen
dc15248,Bremerhaven,0,27568,8.5692610000,53.5473340000,dc15248,22,destination,Bremen
dc15308,Buedingen,0,63654,9.1080350000,50.2746610000,dc15308,22,destination,Hessen
dc36327,Leipzig,0,4109,12.3706340000,51.3396580000,dc36327,22,destination,Sachsen
dc36327,Leipzig,0,4109,12.3706340000,51.3396580000,dc36327,22,destination,Sachsen
dc31681,Muenchen,0,80807,11.5930350000,48.1770060000,dc31681,22,destination,Bayern
dc31681,Muenchen,0,80807,11.5930350000,48.1770060000,dc31681,22,destination,Bayern
dc27525,Wyk,0,25938,8.5533510000,54.6988080000,dc27525,11,destination,Schleswig-Holstein
dc27525,Wyk,0,25938,8.5533510000,54.6988080000,dc27525,11,destination,Schleswig-Holstein
dc18211,Wuppertal,0,42103,7.1516830000,51.2555610000,dc18211,22,destination,Nordrhein-Westfalen
dc50840,Greifswald,0,17489,13.3886590000,54.0687950000,dc50840,22,destination,Mecklenburg-Vorpommern
dc15631,Gelting,0,24395,9.8788950000,54.7410220000,dc15631,22,destination,Schleswig-Holstein
dc46877,Taufkirchen bei München,0,82024,11.6535176000,48.0422231000,dc46877,11,destination,Bayern
dc37653,Stromberg bei Bingen,0,55442,7.7757750000,49.9430870000,dc37653,22,destination,Rheinland-Pfalz
dc37653,Stromberg bei Bingen,0,55442,7.7757750000,49.9430870000,dc37653,22,destination,Rheinland-Pfalz
dc81532,Hof,0,95032,11.9169100000,50.2855340000,dc81532,11,destination,Bayern
dc81532,Hof,0,95032,11.9169100000,50.2855340000,dc81532,11,destination,Bayern
dc37110,Deidesheim,0,67146,8.1863060000,49.4102840000,dc37110,22,destination,Rheinland-Pfalz
dc56810,Heede,0,26892,7.2487570000,52.9853700000,dc56810,22,destination,Niedersachsen
dc56810,Heede,0,26892,7.2487570000,52.9853700000,dc56810,22,destination,Niedersachsen
dc38196,Burg,0,3096,14.1036710000,51.8491750000,dc38196,22,destination,Brandenburg
dc37111,Deidesheim,0,67146,8.1854940000,49.4079410000,dc37111,22,destination,Rheinland-Pfalz
dc36606,Geiselwind,0,96160,10.4625170000,49.7641080000,dc36606,11,destination,Bayern
dc14820,Edenkoben,0,67480,8.1390380000,49.2855620000,dc14820,22,destination,Rheinland-Pfalz
dc14820,Edenkoben,0,67480,8.1390380000,49.2855620000,dc14820,22,destination,Rheinland-Pfalz
dc22491,Oberstaufen,0,87534,10.0196860000,47.5598340000,dc22491,22,destination,Bayern
dc31578,Rotenburg,0,27356,9.2892950000,53.1778880000,dc31578,11,destination,Niedersachsen
dc51023,Koeln,0,50968,6.9628500000,50.9086790000,dc51023,14,destination,Nordrhein-Westfalen
dc51023,Koeln,0,50968,6.9628500000,50.9086790000,dc51023,14,destination,Nordrhein-Westfalen
dc13051,Masserberg,0,98666,10.9687840000,50.5205060000,dc13051,17,destination,Thüringen
dc19372,Bad Fussing,0,94072,13.3117440000,48.3562000000,dc19372,22,destination,Bayern
dc19372,Bad Fussing,0,94072,13.3117440000,48.3562000000,dc19372,22,destination,Bayern
dc12914,Waren,0,17192,12.6971690000,53.5069650000,dc12914,22,destination,Mecklenburg-Vorpommern
dc12914,Waren,0,17192,12.6971690000,53.5069650000,dc12914,22,destination,Mecklenburg-Vorpommern
dc22490,Oberstaufen,0,87534,10.0199670000,47.5463690000,dc22490,22,destination,Bayern
dc43126,Sulingen,0,27232,8.7822870000,52.6733380000,dc43126,22,destination,Niedersachsen
dc43126,Sulingen,0,27232,8.7822870000,52.6733380000,dc43126,22,destination,Niedersachsen
dc58794,Leipzig,0,4158,12.3896050000,51.4016380000,dc58794,22,destination,Sachsen
dc58794,Leipzig,0,4158,12.3896050000,51.4016380000,dc58794,22,destination,Sachsen
dc37677,Luetzkampen,0,54617,6.1460482000,50.1760468000,dc37677,22,destination,Rheinland-Pfalz
dc51037,Schweinfurt,0,97424,10.2368430000,50.0371520000,dc51037,22,destination,Bayern
dc19622,Saarlouis,0,66740,6.7552910000,49.3172620000,dc19622,22,destination,Saarland
dc19622,Saarlouis,0,66740,6.7552910000,49.3172620000,dc19622,22,destination,Saarland
dc29722,Bonn,0,53177,7.1531760000,50.6816180000,dc29722,17,destination,Nordrhein-Westfalen
dc60485,Biedenkopf,0,35216,8.5279920000,50.9083570000,dc60485,22,destination,Hessen
dc27923,Strausberg,0,15344,13.8923700000,52.5961010000,dc27923,11,destination,Brandenburg
dc27923,Strausberg,0,15344,13.8923700000,52.5961010000,dc27923,11,destination,Brandenburg
dc60618,Bad Neuenahr-Ahrweiler,0,53474,7.0649610000,50.5325090000,dc60618,11,destination,Rheinland-Pfalz
dc60618,Bad Neuenahr-Ahrweiler,0,53474,7.0649610000,50.5325090000,dc60618,11,destination,Rheinland-Pfalz
dc605658,Aalen-Unterkochen ,0,73432,10.1428780000,48.8167740000,dc605658,22,destination,Baden-Württemberg
dc39015,Gottmadingen-Bietingen,0,78244,8.7371760000,47.7415890000,dc39015,17,destination,Baden-Württemberg
dc39015,Gottmadingen-Bietingen,0,78244,8.7371760000,47.7415890000,dc39015,17,destination,Baden-Württemberg
dc19990,Markt Nordheim,0,91478,10.2979430000,49.5587350000,dc19990,11,destination,Bayern
dc19990,Markt Nordheim,0,91478,10.2979430000,49.5587350000,dc19990,11,destination,Bayern
dc513857,St. Georgen im Schwarzwald,0,78112,8.3110980000,48.0960190000,dc513857,11,destination,Baden-Württemberg
dc513857,St. Georgen im Schwarzwald,0,78112,8.3110980000,48.0960190000,dc513857,11,destination,Baden-Württemberg
dc27907,Kalkar,0,47546,6.3198380000,51.7067040000,dc27907,22,destination,Nordrhein-Westfalen
dc27907,Kalkar,0,47546,6.3198380000,51.7067040000,dc27907,22,destination,Nordrhein-Westfalen
dc37399,Immenstaad,0,88090,9.3639150000,47.6672490000,dc37399,11,destination,Baden-Württemberg
dc37399,Immenstaad,0,88090,9.3639150000,47.6672490000,dc37399,11,destination,Baden-Württemberg
dc23173,Schluchsee,0,79859,8.1901180000,47.8211350000,dc23173,22,destination,Baden-Württemberg
dc50838,Rothenburg ob der Tauber,0,91541,10.1325630000,49.3382310000,dc50838,11,destination,Bayern
dc53170,Heiligenstadt,0,91332,11.1978540000,49.8412230000,dc53170,22,destination,Bayern
dc24456,Ilsenburg,0,38871,10.6768360000,51.8641530000,dc24456,22,destination,Sachsen-Anhalt
dc24456,Ilsenburg,0,38871,10.6768360000,51.8641530000,dc24456,22,destination,Sachsen-Anhalt
dc16568,Icking,0,82057,11.4375410000,47.9529440000,dc16568,22,destination,Bayern
dc15929,Neunburg vorm Wald,0,92431,12.2625790000,49.3382990000,dc15929,11,destination,Bayern
dc15929,Neunburg vorm Wald,0,92431,12.2625790000,49.3382990000,dc15929,11,destination,Bayern
dc25807,Geiselwind,0,96160,10.4709930000,49.7784680000,dc25807,14,destination,Bayern
dc25807,Geiselwind,0,96160,10.4709930000,49.7784680000,dc25807,14,destination,Bayern
dc13705,Mittelkalbach,0,36148,9.6229380000,50.4094430000,dc13705,22,destination,Hessen
dc75615,Grafenhausen,0,79865,8.2575650000,47.7699950000,dc75615,11,destination,Baden-Württemberg
dc23636,Willingen-Usseln,0,34508,8.6614090000,51.2834810000,dc23636,22,destination,Hessen
dc23636,Willingen-Usseln,0,34508,8.6614090000,51.2834810000,dc23636,22,destination,Hessen
dc588997,Ascheberg,0,59387,7.6180640000,51.7884680000,dc588997,11,destination,Nordrhein-Westfalen
dc588997,Ascheberg,0,59387,7.6180640000,51.7884680000,dc588997,11,destination,Nordrhein-Westfalen
dc37335,Huertgenwald,0,52393,6.3549290000,50.6669280000,dc37335,22,destination,Nordrhein-Westfalen
dc36248,Grafenau,0,94481,13.4246210000,48.8629460000,dc36248,22,destination,Bayern
dc23569,Hoesbach,0,63768,9.2296000000,49.9692800000,dc23569,11,destination,Bayern
dc23569,Hoesbach,0,63768,9.2296000000,49.9692800000,dc23569,11,destination,Bayern
dc58788,Oberreute,0,88179,9.9421550000,47.5623510000,dc58788,11,destination,Bayern
dc25800,Breitenbrunn,0,8359,12.7917460000,50.4798230000,dc25800,11,destination,Sachsen
dc74826,Holzdorf,0,24364,9.9368440000,54.5409700000,dc74826,14,destination,Schleswig-Holstein
dc60203,Neuweiler-Oberkollwangen,0,75389,8.6213100000,48.6759350000,dc60203,11,destination,Baden-Württemberg
dc58785,Thaleischweiler-Froeschen,0,66987,7.5744130000,49.2910900000,dc58785,22,destination,Rheinland-Pfalz
dc58785,Thaleischweiler-Froeschen,0,66987,7.5744130000,49.2910900000,dc58785,22,destination,Rheinland-Pfalz
dc23476,Prüm,0,54595,6.4152080000,50.2014060000,dc23476,22,destination,Rheinland-Pfalz
dc23476,Prüm,0,54595,6.4152080000,50.2014060000,dc23476,22,destination,Rheinland-Pfalz
dc24508,Swisttal,0,53913,6.9182640000,50.7155310000,dc24508,14,destination,Nordrhein-Westfalen
dc24508,Swisttal,0,53913,6.9182640000,50.7155310000,dc24508,14,destination,Nordrhein-Westfalen
dc62696,Euskirchen - Flamersheim,0,53881,6.8505360000,50.6221700000,dc62696,11,destination,Nordrhein-Westfalen
dc62696,Euskirchen - Flamersheim,0,53881,6.8505360000,50.6221700000,dc62696,11,destination,Nordrhein-Westfalen
dc28560,Untergriesbach,0,94107,13.6623090000,48.5710010000,dc28560,17,destination,Bayern
dc36369,Heimbach,0,52396,6.4448009000,50.6327952000,dc36369,22,destination,Nordrhein-Westfalen
dc25676,Steinsfeld,0,91628,10.2125110000,49.4399500000,dc25676,11,destination,Bayern
dc25676,Steinsfeld,0,91628,10.2125110000,49.4399500000,dc25676,11,destination,Bayern
dc26754,Hamburg,0,20099,10.0073940000,53.5584740000,dc26754,22,destination,Unknown
dc41272,Leinefelde Worbis,0,37327,10.3322204000,51.3872510000,dc41272,22,destination,Thüringen
dc41272,Leinefelde Worbis,0,37327,10.3322204000,51.3872510000,dc41272,22,destination,Thüringen
dc13152,Leipzig,0,4109,12.3768840000,51.3433860000,dc13152,22,destination,Sachsen
dc533050,Weyhe,0,28844,8.8153270000,52.9943900000,dc533050,22,destination,Niedersachsen
dc533050,Weyhe,0,28844,8.8153270000,52.9943900000,dc533050,22,destination,Niedersachsen
dc36424,Bad Kreuznach,0,55543,7.8823290000,49.8541140000,dc36424,11,destination,Rheinland-Pfalz
dc36424,Bad Kreuznach,0,55543,7.8823290000,49.8541140000,dc36424,11,destination,Rheinland-Pfalz
dc31670,Leverkusen,0,51373,6.9885020000,51.0357170000,dc31670,17,destination,Nordrhein-Westfalen
dc15872,Dipperz,0,36160,9.7909300000,50.5199530000,dc15872,22,destination,Hessen
dc18643,Frankfurt am Main,0,65929,8.5533780000,50.1020580000,dc18643,11,destination,Hessen
dc18643,Frankfurt am Main,0,65929,8.5533780000,50.1020580000,dc18643,11,destination,Hessen
dc25119,Frankfurt am Main,0,60594,8.6953850000,50.1061380000,dc25119,22,destination,Hessen
dc25119,Frankfurt am Main,0,60594,8.6953850000,50.1061380000,dc25119,22,destination,Hessen
dc36771,Hamburg,0,20459,9.9779970000,53.5509990000,dc36771,22,destination,Unknown
dc36771,Hamburg,0,20459,9.9779970000,53.5509990000,dc36771,22,destination,Unknown
dc49228,Oberstaufen,0,87534,10.0180960000,47.5582670000,dc49228,22,destination,Bayern
dc49228,Oberstaufen,0,87534,10.0180960000,47.5582670000,dc49228,22,destination,Bayern
dc25839,Langenau,0,89129,10.1189120000,48.4961750000,dc25839,22,destination,Baden-Württemberg
dc25839,Langenau,0,89129,10.1189120000,48.4961750000,dc25839,22,destination,Baden-Württemberg
dc21945,Giengen,0,89537,10.2281000000,48.6145960000,dc21945,22,destination,Baden-Württemberg
dc21945,Giengen,0,89537,10.2281000000,48.6145960000,dc21945,22,destination,Baden-Württemberg
dc18290,Langenfeld,0,40764,6.9934250000,51.1251290000,dc18290,22,destination,Nordrhein-Westfalen
dc18290,Langenfeld,0,40764,6.9934250000,51.1251290000,dc18290,22,destination,Nordrhein-Westfalen
dc548148,Lehrte,0,31275,9.9698370000,52.3880440000,dc548148,11,destination,Niedersachsen
dc548148,Lehrte,0,31275,9.9698370000,52.3880440000,dc548148,11,destination,Niedersachsen
dc50839,Neubrandenburg,0,17036,13.3106490000,53.5555390000,dc50839,22,destination,Mecklenburg-Vorpommern
dc43781,Bernried am Starnberger See,0,82347,11.2926710000,47.8695060000,dc43781,22,destination,Bayern
dc43781,Bernried am Starnberger See,0,82347,11.2926710000,47.8695060000,dc43781,22,destination,Bayern
dc24161,Muenster,0,48143,7.6352460000,51.9613720000,dc24161,22,destination,Nordrhein-Westfalen
dc17291,Bad Griesbach im Rottal,0,94086,13.1852340000,48.4300310000,dc17291,11,destination,Bayern
dc17291,Bad Griesbach im Rottal,0,94086,13.1852340000,48.4300310000,dc17291,11,destination,Bayern
dc38622,Neumuenster,0,24539,9.9788570000,54.0439100000,dc38622,11,destination,Schleswig-Holstein
dc38622,Neumuenster,0,24539,9.9788570000,54.0439100000,dc38622,11,destination,Schleswig-Holstein
dc54592,Ochtrup,0,48607,7.1982550000,52.2107010000,dc54592,22,destination,Nordrhein-Westfalen
dc54592,Ochtrup,0,48607,7.1982550000,52.2107010000,dc54592,22,destination,Nordrhein-Westfalen
dc14453,Neu-Ulm,0,89233,10.0689620000,48.3638260000,dc14453,22,destination,Bayern
dc14453,Neu-Ulm,0,89233,10.0689620000,48.3638260000,dc14453,22,destination,Bayern
dc18390,Düsseldorf,0,40479,6.7781310000,51.2330830000,dc18390,22,destination,Nordrhein-Westfalen
dc18390,Düsseldorf,0,40479,6.7781310000,51.2330830000,dc18390,22,destination,Nordrhein-Westfalen
dc47013,Hannover,0,30419,9.6805270000,52.4066670000,dc47013,11,destination,Niedersachsen
dc47013,Hannover,0,30419,9.6805270000,52.4066670000,dc47013,11,destination,Niedersachsen
dc58791,Hodemhagen,0,29693,9.5886320000,52.7571670000,dc58791,11,destination,Niedersachsen
dc51031,Landshut,0,84034,12.1468260000,48.5362180000,dc51031,14,destination,Bayern
dc51031,Landshut,0,84034,12.1468260000,48.5362180000,dc51031,14,destination,Bayern
dc56813,Wetzlar,0,35578,8.5096090000,50.5521780000,dc56813,17,destination,Hessen
dc21836,Mönchengladbach,0,41061,6.4378290000,51.1950650000,dc21836,11,destination,Nordrhein-Westfalen
dc16896,Essen,0,45289,7.1260620000,51.4173300000,dc16896,11,destination,Nordrhein-Westfalen
dc16896,Essen,0,45289,7.1260620000,51.4173300000,dc16896,11,destination,Nordrhein-Westfalen
dc15641,Essen,0,45149,6.9766790000,51.4327810000,dc15641,11,destination,Nordrhein-Westfalen
dc15641,Essen,0,45149,6.9766790000,51.4327810000,dc15641,11,destination,Nordrhein-Westfalen
dc49064,Rothenburg ob der Tauber,0,91541,10.1854180000,49.3804840000,dc49064,17,destination,Bayern
dc49064,Rothenburg ob der Tauber,0,91541,10.1854180000,49.3804840000,dc49064,17,destination,Bayern
dc59594,Wernigerode,0,38855,10.7799320000,51.8308710000,dc59594,22,destination,Sachsen-Anhalt
dc37547,Pilsting,0,94431,12.6723850000,48.6917910000,dc37547,22,destination,Bayern
dc37547,Pilsting,0,94431,12.6723850000,48.6917910000,dc37547,22,destination,Bayern
dc31475,Burgebrach,0,96138,10.7325940000,49.8048190000,dc31475,11,destination,Bayern
dc31475,Burgebrach,0,96138,10.7325940000,49.8048190000,dc31475,11,destination,Bayern
dc31475,Burgebrach,0,96138,10.7325940000,49.8048190000,dc31475,11,destination,Bayern
dc14163,Berlin,0,10963,13.3804870000,52.5036880000,dc14163,22,destination,Berlin
dc13270,Münster,0,48149,7.6056310000,51.9555470000,dc13270,22,destination,Nordrhein-Westfalen
dc13270,Münster,0,48149,7.6056310000,51.9555470000,dc13270,22,destination,Nordrhein-Westfalen
dc13269,Nürnberg,0,90411,11.0797640000,49.4931840000,dc13269,22,destination,Bayern
dc13269,Nürnberg,0,90411,11.0797640000,49.4931840000,dc13269,22,destination,Bayern
dc13155,Stuttgart,0,70629,9.1936450000,48.6914300000,dc13155,22,destination,Baden-Württemberg
dc37867,Medebach Medelon,0,59964,8.6697440000,51.1697880000,dc37867,22,destination,Nordrhein-Westfalen
dc18259,Berlin,0,10117,13.3902120000,52.5197110000,dc18259,11,destination,Berlin
dc16162,Berlin,0,14109,13.1676350000,52.4213060000,dc16162,22,destination,Berlin
dc16162,Berlin,0,14109,13.1676350000,52.4213060000,dc16162,22,destination,Berlin
dc39007,Schliffkopf-Baiersbronn,0,72270,8.2173630000,48.5316550000,dc39007,17,destination,Baden-Württemberg
dc39007,Schliffkopf-Baiersbronn,0,72270,8.2173630000,48.5316550000,dc39007,17,destination,Baden-Württemberg
dc19805,Vettelschoss,0,53560,7.3132190000,50.6156440000,dc19805,22,destination,Rheinland-Pfalz
dc19805,Vettelschoss,0,53560,7.3132190000,50.6156440000,dc19805,22,destination,Rheinland-Pfalz
dc57051,Mespelbrunn,0,63875,9.3037900000,49.9066070000,dc57051,14,destination,Bayern
dc57051,Mespelbrunn,0,63875,9.3037900000,49.9066070000,dc57051,14,destination,Bayern
dc15346,Südharz,0,6536,10.9992560000,51.5900750000,dc15346,22,destination,Sachsen-Anhalt
dc15346,Südharz,0,6536,10.9992560000,51.5900750000,dc15346,22,destination,Sachsen-Anhalt
dc531778,Buxtehude,0,21614,9.7038920000,53.4774470000,dc531778,22,destination,Niedersachsen
dc531778,Buxtehude,0,21614,9.7038920000,53.4774470000,dc531778,22,destination,Niedersachsen
dc36595,Germersheim,0,76726,8.3770590000,49.2041270000,dc36595,22,destination,Rheinland-Pfalz
dc36595,Germersheim,0,76726,8.3770590000,49.2041270000,dc36595,22,destination,Rheinland-Pfalz
dc40528,Norderney,0,26548,7.1738767000,53.7112579000,dc40528,11,destination,Niedersachsen
dc40528,Norderney,0,26548,7.1738767000,53.7112579000,dc40528,11,destination,Niedersachsen
dc53086,Norderstedt,0,22848,9.9838370000,53.6537960000,dc53086,11,destination,Schleswig-Holstein
dc53086,Norderstedt,0,22848,9.9838370000,53.6537960000,dc53086,11,destination,Schleswig-Holstein
dc23647,Bremen,0,28195,8.8078410000,53.0824240000,dc23647,14,destination,Bremen
dc23647,Bremen,0,28195,8.8078410000,53.0824240000,dc23647,14,destination,Bremen
dc15140,Ruhpolding,0,83324,12.6634290000,47.7428100000,dc15140,14,destination,Bayern
dc46575,Peitz,0,3185,14.4229700000,51.8486500000,dc46575,11,destination,Brandenburg
dc46575,Peitz,0,3185,14.4229700000,51.8486500000,dc46575,11,destination,Brandenburg
dc30910,Wadgassen,0,66787,6.7932460000,49.2699660000,dc30910,11,destination,Saarland
dc30910,Wadgassen,0,66787,6.7932460000,49.2699660000,dc30910,11,destination,Saarland
dc22108,Recklinghausen,0,45657,7.2008650000,51.6134040000,dc22108,22,destination,Nordrhein-Westfalen
dc23080,Sellin,0,18586,13.6995680000,54.3737480000,dc23080,22,destination,Mecklenburg-Vorpommern
dc23080,Sellin,0,18586,13.6995680000,54.3737480000,dc23080,22,destination,Mecklenburg-Vorpommern
dc37670,Frankfurt am Main,0,60549,8.5935470000,50.0553290000,dc37670,22,destination,Hessen
dc29782,Bad Harzburg,0,38667,10.5536410000,51.8770930000,dc29782,11,destination,Niedersachsen
dc29782,Bad Harzburg,0,38667,10.5536410000,51.8770930000,dc29782,11,destination,Niedersachsen
dc60267,Schluchsee,0,79859,8.1801490000,47.8201790000,dc60267,17,destination,Baden-Württemberg
dc60267,Schluchsee,0,79859,8.1801490000,47.8201790000,dc60267,17,destination,Baden-Württemberg
dc24735,Oberstdorf,0,87561,10.2787020000,47.4040620000,dc24735,22,destination,Bayern
dc24735,Oberstdorf,0,87561,10.2787020000,47.4040620000,dc24735,22,destination,Bayern
dc35863,Herne,0,44623,7.2377380000,51.5444240000,dc35863,11,destination,Nordrhein-Westfalen
dc24298,Pforzheim,0,75175,8.7032310000,48.8889650000,dc24298,17,destination,Baden-Württemberg
dc21172,Munich,0,81241,11.4654260000,48.1481110000,dc21172,22,destination,Bayern
dc21172,Munich,0,81241,11.4654260000,48.1481110000,dc21172,22,destination,Bayern
dc23639,Leipzig,0,4329,12.4767610000,51.3483470000,dc23639,22,destination,Sachsen
dc23639,Leipzig,0,4329,12.4767610000,51.3483470000,dc23639,22,destination,Sachsen
dc16679,Bayerisch Eisenstein,0,94252,13.2056730000,49.1210950000,dc16679,11,destination,Bayern
dc16679,Bayerisch Eisenstein,0,94252,13.2056730000,49.1210950000,dc16679,11,destination,Bayern
dc23474,Köln,0,51103,7.0172920000,50.9398800000,dc23474,22,destination,Nordrhein-Westfalen
dc23474,Köln,0,51103,7.0172920000,50.9398800000,dc23474,22,destination,Nordrhein-Westfalen
dc18214,Kappeln,0,24376,9.9348820000,54.6623040000,dc18214,22,destination,Schleswig-Holstein
dc19615,München,0,80331,11.5788030000,48.1380180000,dc19615,22,destination,Bayern
dc22039,Rotenburg an der Fulda,0,36199,9.7347710000,50.9968870000,dc22039,22,destination,Hessen
dc37396,Waldhaus,0,79809,8.1574620000,47.6833880000,dc37396,22,destination,Baden-Württemberg
dc37396,Waldhaus,0,79809,8.1574620000,47.6833880000,dc37396,22,destination,Baden-Württemberg
dc31182,Pulheim,0,50259,6.8206190000,50.9933020000,dc31182,22,destination,Nordrhein-Westfalen
dc31182,Pulheim,0,50259,6.8206190000,50.9933020000,dc31182,22,destination,Nordrhein-Westfalen
dc22427,Köln,0,50667,6.9453610000,50.9399510000,dc22427,22,destination,Nordrhein-Westfalen
dc79640,Guetersloh,0,33334,8.4112180000,51.9458550000,dc79640,6,destination,Nordrhein-Westfalen
dc17495,Garmisch-Partenkirchen,0,82467,11.0887480000,47.4901420000,dc17495,14,destination,Bayern
dc531850,Potsdam,0,14476,13.1035620000,52.4710420000,dc531850,22,destination,Brandenburg
dc531850,Potsdam,0,14476,13.1035620000,52.4710420000,dc531850,22,destination,Brandenburg
dc58164,Lietzow,0,18528,13.5577700000,54.5018680000,dc58164,22,destination,Mecklenburg-Vorpommern
dc37407,Hamburg,0,22335,10.0083460000,53.6323610000,dc37407,22,destination,Unknown
dc60463,Cottbus,0,3048,14.3255880000,51.7492690000,dc60463,14,destination,Brandenburg
dc60463,Cottbus,0,3048,14.3255880000,51.7492690000,dc60463,14,destination,Brandenburg
dc27011,Frankfurt,0,60486,8.6272120000,50.1172960000,dc27011,22,destination,Hessen
dc27011,Frankfurt,0,60486,8.6272120000,50.1172960000,dc27011,22,destination,Hessen
dc62917,Wolpertshausen,0,74549,9.8598960000,49.1697940000,dc62917,22,destination,Baden-Württemberg
dc62917,Wolpertshausen,0,74549,9.8598960000,49.1697940000,dc62917,22,destination,Baden-Württemberg
dc62917,Wolpertshausen,0,74549,9.8598960000,49.1697940000,dc62917,22,destination,Baden-Württemberg
reitimwinklfestsaal,Reit im Winkl,0,83242,12.4654290000,47.6757100000,reitimwinklfestsaal,22,destination,Bayern
reitimwinklfestsaal,Reit im Winkl,0,83242,12.4654290000,47.6757100000,reitimwinklfestsaal,22,destination,Bayern
dc18254,Hamburg,0,20099,10.0126930000,53.5605490000,dc18254,22,destination,Unknown
dc18224,Stuttgart,0,70569,9.0876190000,48.7547170000,dc18224,11,destination,Baden-Württemberg
dc34816,Aschau,0,83229,12.3215520000,47.7790670000,dc34816,14,destination,Bayern
dc26689,Bad Wiessee,0,83707,11.7118840000,47.7144620000,dc26689,11,destination,Bayern
dc26689,Bad Wiessee,0,83707,11.7118840000,47.7144620000,dc26689,11,destination,Bayern
dc37138,Ebnath,0,95683,11.9343280000,49.9722390000,dc37138,11,destination,Bayern
dc16858,Wolfach,0,77709,8.2667750000,48.2886540000,dc16858,14,destination,Baden-Württemberg
dc33292,Niesky,0,2906,14.8429820000,51.2899310000,dc33292,11,destination,Sachsen
dc33292,Niesky,0,2906,14.8429820000,51.2899310000,dc33292,11,destination,Sachsen
dc28315,Nierstein,0,55283,8.3421030000,49.8740820000,dc28315,22,destination,Rheinland-Pfalz
dc28315,Nierstein,0,55283,8.3421030000,49.8740820000,dc28315,22,destination,Rheinland-Pfalz
dc13103,Meerbusch,0,40668,6.7228010000,51.2987790000,dc13103,22,destination,Nordrhein-Westfalen
dc13103,Meerbusch,0,40668,6.7228010000,51.2987790000,dc13103,22,destination,Nordrhein-Westfalen
dc20233,Garmisch-Partenkirchen,0,82467,11.0801880000,47.4798220000,dc20233,11,destination,Bayern
dc20233,Garmisch-Partenkirchen,0,82467,11.0801880000,47.4798220000,dc20233,11,destination,Bayern
dc56974,Malchow,0,17213,12.4289330000,53.4745230000,dc56974,17,destination,Mecklenburg-Vorpommern
dc60738,Bad Mergentheim,0,97980,9.7817600000,49.4892430000,dc60738,7,destination,Baden-Württemberg
dc60738,Bad Mergentheim,0,97980,9.7817600000,49.4892430000,dc60738,7,destination,Baden-Württemberg
dc13122,Lübeck,0,23560,10.6178230000,53.8153270000,dc13122,11,destination,Schleswig-Holstein
dc28318,Lautenbach,0,77794,8.1156840000,48.5205070000,dc28318,22,destination,Baden-Württemberg
dc28318,Lautenbach,0,77794,8.1156840000,48.5205070000,dc28318,22,destination,Baden-Württemberg
dc37869,St. Wendel,0,66606,7.1537320000,49.4689350000,dc37869,22,destination,Saarland
dc37869,St. Wendel,0,66606,7.1537320000,49.4689350000,dc37869,22,destination,Saarland
dc74678,Schwaebisch Hall,0,74523,9.7852880000,49.1377000000,dc74678,14,destination,Baden-Württemberg
dc25809,Grainau,0,82491,11.0201280000,47.4773120000,dc25809,11,destination,Bayern
dc25861,Bad Soden-Allendorf,0,37242,9.9501020000,51.2813990000,dc25861,17,destination,Hessen
dc25861,Bad Soden-Allendorf,0,37242,9.9501020000,51.2813990000,dc25861,17,destination,Hessen
dc25134,Bad Harzburg,0,38667,10.5595470000,51.8823250000,dc25134,11,destination,Niedersachsen
dc19417,Ludorf,0,17207,12.6696740000,53.3794100000,dc19417,22,destination,Mecklenburg-Vorpommern
dc31248,Parsberg,0,92331,11.7184830000,49.1600840000,dc31248,22,destination,Bayern
dc18345,Bad Saulgau,0,88348,9.5012030000,48.0151700000,dc18345,22,destination,Baden-Württemberg
dc11749,Bad Aibling,0,83043,12.0106170000,47.8639590000,dc11749,22,destination,Bayern
dc11749,Bad Aibling,0,83043,12.0106170000,47.8639590000,dc11749,22,destination,Bayern
dc31257,Ueberherrn,0,66802,6.7315950000,49.2529730000,dc31257,11,destination,Saarland
dc33269,Attendorn,0,57439,7.9667060000,51.1132200000,dc33269,11,destination,Nordrhein-Westfalen
dc19374,Norden,0,26506,7.2124420000,53.5921800000,dc19374,22,destination,Niedersachsen
dc19374,Norden,0,26506,7.2124420000,53.5921800000,dc19374,22,destination,Niedersachsen
dc33884,Baiersbronn-Schwarzenberg,0,72270,8.3838920000,48.5973800000,dc33884,11,destination,Baden-Württemberg
dc33884,Baiersbronn-Schwarzenberg,0,72270,8.3838920000,48.5973800000,dc33884,11,destination,Baden-Württemberg
dc25014,Bad Neuenahr-Ahrweiler,0,53474,7.0797550000,50.5315030000,dc25014,11,destination,Rheinland-Pfalz
dc18319,Stralsund,0,18439,13.0927170000,54.3166350000,dc18319,22,destination,Mecklenburg-Vorpommern
dc17742,Kelkheim (Taunus),0,65779,8.4289990000,50.1697210000,dc17742,22,destination,Hessen
dc30262,St. Goar,0,56329,7.7054220000,50.1535620000,dc30262,22,destination,Rheinland-Pfalz
dc30262,St. Goar,0,56329,7.7054220000,50.1535620000,dc30262,22,destination,Rheinland-Pfalz
dc37397,Bad Nenndorf,0,31542,9.3336680000,52.3455610000,dc37397,11,destination,Niedersachsen
dc18346,Osnabrück,0,49074,8.0410820000,52.2773170000,dc18346,22,destination,Niedersachsen
dc29844,Volkach,0,97332,10.2266980000,49.8649940000,dc29844,22,destination,Bayern
dc37588,Quedlinburg,0,6484,11.1372170000,51.7841460000,dc37588,11,destination,Sachsen-Anhalt
dc37664,Ostseebad Sellin,0,18586,13.6959770000,54.3801800000,dc37664,22,destination,Mecklenburg-Vorpommern
dc37664,Ostseebad Sellin,0,18586,13.6959770000,54.3801800000,dc37664,22,destination,Mecklenburg-Vorpommern
dc18343,Schmallenberg,0,57392,8.3410040000,51.1593870000,dc18343,22,destination,Nordrhein-Westfalen
dc35337,Oberorke,0,34516,8.8459470000,51.1357840000,dc35337,22,destination,Hessen
dc35337,Oberorke,0,34516,8.8459470000,51.1357840000,dc35337,22,destination,Hessen
dc26241,Oberstaufen,0,87534,10.0211820000,47.5586040000,dc26241,11,destination,Bayern
dc26241,Oberstaufen,0,87534,10.0211820000,47.5586040000,dc26241,11,destination,Bayern
dc15250,Oberstdorf,0,87561,10.2710200000,47.4045900000,dc15250,11,destination,Bayern
dc29964,Berlin,0,12459,13.5198140000,52.4605530000,dc29964,22,destination,Berlin
dc81551,Worms,0,67550,8.3355020000,49.6576840000,dc81551,11,destination,Rheinland-Pfalz
dc81551,Worms,0,67550,8.3355020000,49.6576840000,dc81551,11,destination,Rheinland-Pfalz
dc17973,Crivitz,0,19089,11.6266560000,53.6380070000,dc17973,22,destination,Mecklenburg-Vorpommern
dc17973,Crivitz,0,19089,11.6266560000,53.6380070000,dc17973,22,destination,Mecklenburg-Vorpommern
dc17118,Krün,0,82493,11.1840510000,47.4621620000,dc17118,22,destination,Bayern
dc17118,Krün,0,82493,11.1840510000,47.4621620000,dc17118,22,destination,Bayern
dc22072,Neuwied,0,56566,7.5436520000,50.4230650000,dc22072,22,destination,Rheinland-Pfalz
dc22072,Neuwied,0,56566,7.5436520000,50.4230650000,dc22072,22,destination,Rheinland-Pfalz
dc18256,Meinhard,0,37276,10.1069070000,51.2036100000,dc18256,22,destination,Hessen
dc18256,Meinhard,0,37276,10.1069070000,51.2036100000,dc18256,22,destination,Hessen
dc21374,Trebsen,0,4687,12.7570310000,51.2909620000,dc21374,22,destination,Sachsen
dc21374,Trebsen,0,4687,12.7570310000,51.2909620000,dc21374,22,destination,Sachsen
dc18313,Hopferau,0,87659,10.6330740000,47.6140370000,dc18313,17,destination,Bayern
dc18313,Hopferau,0,87659,10.6330740000,47.6140370000,dc18313,17,destination,Bayern
dc27912,Gross Schwansee,0,23942,11.0116910000,53.9918910000,dc27912,22,destination,Mecklenburg-Vorpommern
dc27912,Gross Schwansee,0,23942,11.0116910000,53.9918910000,dc27912,22,destination,Mecklenburg-Vorpommern
dc26679,Blankenbrg,0,38889,10.9602170000,51.7879120000,dc26679,22,destination,Sachsen-Anhalt
dc18248,Hohen Demzin,0,17166,12.5425040000,53.7011890000,dc18248,22,destination,Mecklenburg-Vorpommern
dc18257,Neualbenreuth,0,95698,12.4401210000,49.9698980000,dc18257,22,destination,Bayern
dc18257,Neualbenreuth,0,95698,12.4401210000,49.9698980000,dc18257,22,destination,Bayern
dc20856,Herleshausen,0,37293,10.0809350000,51.0417130000,dc20856,17,destination,Hessen
dc20856,Herleshausen,0,37293,10.0809350000,51.0417130000,dc20856,17,destination,Hessen
dc19190,Kassel,0,34131,9.4155150000,51.3174040000,dc19190,22,destination,Hessen
dc22486,Ludwigsburg,0,71634,9.1674240000,48.9209840000,dc22486,11,destination,Baden-Württemberg
dc22486,Ludwigsburg,0,71634,9.1674240000,48.9209840000,dc22486,11,destination,Baden-Württemberg
dc32476,Aerzen,0,31855,9.2516540000,52.0691520000,dc32476,22,destination,Niedersachsen
dc32476,Aerzen,0,31855,9.2516540000,52.0691520000,dc32476,22,destination,Niedersachsen
dc23105,Unterschwaningen,0,91743,10.6097590000,49.0968280000,dc23105,11,destination,Bayern
dc23105,Unterschwaningen,0,91743,10.6097590000,49.0968280000,dc23105,11,destination,Bayern
dc60571,Durbach,0,77770,8.0374540000,48.4962890000,dc60571,22,destination,Baden-Württemberg
dc27056,Norddorff,0,25946,8.3309580000,54.6812200000,dc27056,22,destination,Schleswig-Holstein
dc81536,Lychen,0,17279,13.2920670000,53.2192100000,dc81536,7,destination,Brandenburg
dc32184,Alt-Duvenstedt,0,24791,9.6773550000,54.3804830000,dc32184,17,destination,Schleswig-Holstein
dc32184,Alt-Duvenstedt,0,24791,9.6773550000,54.3804830000,dc32184,17,destination,Schleswig-Holstein
dc37149,Zeuthen,0,15738,13.6392200000,52.3328750000,dc37149,22,destination,Brandenburg
dc35255,Gerolstein,0,54568,6.6453330000,50.2314430000,dc35255,14,destination,Rheinland-Pfalz
dc35255,Gerolstein,0,54568,6.6453330000,50.2314430000,dc35255,14,destination,Rheinland-Pfalz
dc26695,Hodenhagen,0,29693,9.6168280000,52.7489660000,dc26695,11,destination,Niedersachsen
dc74665,Alzenau,0,63755,9.1319580000,50.0968450000,dc74665,8,destination,Bayern
dc10669,Hamburg,0,20457,9.9882960000,53.5495180000,dc10669,22,destination,Unknown
dc10669,Hamburg,0,20457,9.9882960000,53.5495180000,dc10669,22,destination,Unknown
dc35063,Bad Harzburg,0,38667,10.5596780000,51.8702040000,dc35063,22,destination,Niedersachsen
dc35063,Bad Harzburg,0,38667,10.5596780000,51.8702040000,dc35063,22,destination,Niedersachsen
dc76050,Dietzenbach,0,63128,8.7933760000,50.0160860000,dc76050,22,destination,Hessen
dc76050,Dietzenbach,0,63128,8.7933760000,50.0160860000,dc76050,22,destination,Hessen
dc25426,Garching,0,85748,11.6542440000,48.2447270000,dc25426,6,destination,Bayern
dc25426,Garching,0,85748,11.6542440000,48.2447270000,dc25426,6,destination,Bayern
dc25426,Garching,0,85748,11.6542440000,48.2447270000,dc25426,6,destination,Bayern
dc14369,Staufenberg,0,34355,9.5874270000,51.3827190000,dc14369,22,destination,Niedersachsen
dc14369,Staufenberg,0,34355,9.5874270000,51.3827190000,dc14369,22,destination,Niedersachsen
dc22575,Meersburg,0,88709,9.2721940000,47.6976260000,dc22575,22,destination,Baden-Württemberg
dc22031,Oberaudorf,0,83080,12.1787730000,47.6477670000,dc22031,11,destination,Bayern
dc33159,Berlin,0,10367,13.4859370000,52.5243380000,dc33159,22,destination,Berlin
dc33159,Berlin,0,10367,13.4859370000,52.5243380000,dc33159,22,destination,Berlin
dc31443,Donauwoerth,0,86609,10.7587080000,48.7088520000,dc31443,22,destination,Bayern
dc31443,Donauwoerth,0,86609,10.7587080000,48.7088520000,dc31443,22,destination,Bayern
dc38619,Elmshorn,0,25336,9.6489820000,53.7485140000,dc38619,22,destination,Schleswig-Holstein
dc38619,Elmshorn,0,25336,9.6489820000,53.7485140000,dc38619,22,destination,Schleswig-Holstein
dc37665,Gadebusch,0,19205,11.1211420000,53.7039220000,dc37665,14,destination,Mecklenburg-Vorpommern
dc22159,Heringsdorf,0,17424,14.1740340000,53.9507270000,dc22159,22,destination,Mecklenburg-Vorpommern
dc22159,Heringsdorf,0,17424,14.1740340000,53.9507270000,dc22159,22,destination,Mecklenburg-Vorpommern
dc531215,München,0,80805,11.5901840000,48.1746130000,dc531215,22,destination,Bayern
dc531215,München,0,80805,11.5901840000,48.1746130000,dc531215,22,destination,Bayern
dc531215,München,0,80805,11.5901840000,48.1746130000,dc531215,22,destination,Bayern
dc26665,Lörrach,0,79539,7.6655830000,47.6134900000,dc26665,22,destination,Baden-Württemberg
dc26665,Lörrach,0,79539,7.6655830000,47.6134900000,dc26665,22,destination,Baden-Württemberg
dc18352,Übersee,0,83236,12.4757090000,47.8490300000,dc18352,22,destination,Bayern
dc18352,Übersee,0,83236,12.4757090000,47.8490300000,dc18352,22,destination,Bayern
dc29631,Neustadt in Holstein,0,23730,10.8695680000,54.0872670000,dc29631,22,destination,Schleswig-Holstein
dc29631,Neustadt in Holstein,0,23730,10.8695680000,54.0872670000,dc29631,22,destination,Schleswig-Holstein
dc38630,Dagebuell,0,25899,8.6935330000,54.7294680000,dc38630,11,destination,Schleswig-Holstein
dc38630,Dagebuell,0,25899,8.6935330000,54.7294680000,dc38630,11,destination,Schleswig-Holstein
dc17263,Cuxhaven,0,27476,8.6395950000,53.8851260000,dc17263,22,destination,Niedersachsen
dc26856,Seebad Heringsdorf,0,17424,14.1655970000,53.9579600000,dc26856,17,destination,Mecklenburg-Vorpommern
dc26856,Seebad Heringsdorf,0,17424,14.1655970000,53.9579600000,dc26856,17,destination,Mecklenburg-Vorpommern
dc29508,Pfofeld OT Langlau,0,91738,10.8634020000,49.1274720000,dc29508,11,destination,Bayern
dc29508,Pfofeld OT Langlau,0,91738,10.8634020000,49.1274720000,dc29508,11,destination,Bayern
dc29508,Pfofeld OT Langlau,0,91738,10.8634020000,49.1274720000,dc29508,11,destination,Bayern
dc21495,Wenningstedt,0,25996,8.3196140000,54.9359740000,dc21495,22,destination,Schleswig-Holstein
dc21495,Wenningstedt,0,25996,8.3196140000,54.9359740000,dc21495,22,destination,Schleswig-Holstein
dc41251,Aiterhofen,0,94330,12.6611310000,48.8920450000,dc41251,11,destination,Bayern
dc41251,Aiterhofen,0,94330,12.6611310000,48.8920450000,dc41251,11,destination,Bayern
dc21255,Munich,0,80992,11.5333890000,48.1788650000,dc21255,11,destination,Bayern
dc16003,Ahrenshoop,0,18347,12.4258150000,54.3840820000,dc16003,17,destination,Mecklenburg-Vorpommern
dc16003,Ahrenshoop,0,18347,12.4258150000,54.3840820000,dc16003,17,destination,Mecklenburg-Vorpommern
dc35536,Cottbus,0,3044,14.3417410000,51.7729190000,dc35536,11,destination,Brandenburg
dc35536,Cottbus,0,3044,14.3417410000,51.7729190000,dc35536,11,destination,Brandenburg
dc30496,Berlin,0,10115,13.3804760000,52.5329510000,dc30496,22,destination,Berlin
dc30496,Berlin,0,10115,13.3804760000,52.5329510000,dc30496,22,destination,Berlin
dc37793,Göhren-Lebbin,0,17213,12.4846350000,53.4913060000,dc37793,22,destination,Mecklenburg-Vorpommern
dc13662,Bayrischzell,0,83735,12.0232150000,47.6734380000,dc13662,22,destination,Bayern
dc13662,Bayrischzell,0,83735,12.0232150000,47.6734380000,dc13662,22,destination,Bayern
dc11694,Friedrichroda,0,99894,10.5880700000,50.8317400000,dc11694,14,destination,Thüringen
dc20271,Dalmen,0,48249,7.2903970000,51.8403120000,dc20271,17,destination,Nordrhein-Westfalen
dc17290,Munchen,0,80805,11.5881120000,48.1696670000,dc17290,11,destination,Bayern
dc16143,Hasbergen,0,49205,7.9659020000,52.2661090000,dc16143,22,destination,Niedersachsen
dc30271,Auggen,0,79424,7.5903490000,47.7882460000,dc30271,22,destination,Baden-Württemberg
dc30271,Auggen,0,79424,7.5903490000,47.7882460000,dc30271,22,destination,Baden-Württemberg
dc48885,Oberhausen,0,46047,6.8871430000,51.4899030000,dc48885,22,destination,Nordrhein-Westfalen
dc48885,Oberhausen,0,46047,6.8871430000,51.4899030000,dc48885,22,destination,Nordrhein-Westfalen
dc29007,Berlin,0,10785,13.3754020000,52.5102430000,dc29007,11,destination,Berlin
dc29007,Berlin,0,10785,13.3754020000,52.5102430000,dc29007,11,destination,Berlin
dc29007,Berlin,0,10785,13.3754020000,52.5102430000,dc29007,11,destination,Berlin
dc15804,Neustrelitz,0,17235,13.0807980000,53.3523900000,dc15804,22,destination,Mecklenburg-Vorpommern
dc15804,Neustrelitz,0,17235,13.0807980000,53.3523900000,dc15804,22,destination,Mecklenburg-Vorpommern
